~VERSION INFORMATION 
VERS.            2.0: LAS LOG ASCII STANDARD VERSION 2.0 
WRAP.             NO: ONE LINE PER DEPTH STEP 
~WELL INFORMATION 
#MNEM.UNIT     DATA                   DESCRIPTION    
#------------------------------------------------
STRT.F      46.0000                    : 
STOP.F    5364.0000                    : 
STEP.F       1.0000                    : 
NULL.       -999.25                    : 
WELL.        J. DONALDSON #1                : WELL NAME       
LONG.        0.0000000                      : LONGITUDE       
LAT.         0.0000000                      : LATITUDE        
SEC.         15                             : SECTION         
STAT.        OH                             : STATE           
TWP.         MILLER                              : TOWNSHIP        
PROJ.        RED #326                       : PROJECT         
DATE.        90/12/17                       : DATE            
OPER.        EDCO DRLG & PROD               : OPERATOR        
ORIG.        KB                             : LOG ORIGIN      
API.         3408323915                     : API             
CMNT1.       API SERIAL # 3-4093-2          : COMMENT 1       
CMNT2.       PERMIT #3915                   : COMMENT 2       
RGE.         1                              : RANGE           
CNTY.        KNOX                           : COUNTY          
LOC.         560'NL & 1056'EL OF SEC 15     : LOCATION DESC   
~TOPS
BIG LIME              1336.00
BASE BIG LIME         2084.00
PACKER SHELL          2170.00
STRAY                 2208.00
TRENTON               3522.00
BLACK RIVER           3678.00
GULL RIVER            4062.00
GLENWOOD              4122.00
TREMPEALEAU           4160.00
LCR                   4364.00
CONASAUGA             4660.00
ROME                  4762.00
MT. SIMON             5132.00
GRANITE               5234.00
~CURVE INFORMATION 
#MNEM.UNIT     API CODE               CURVE DESCRIPTION
#------------------------------------------------------
DEPT.F                                 : 1 DEPTH
DT  .usec/ft                        : 2 SONIC
RHOB.gm/cc                          : 3 DENSITY
GR  .API UNITS                      : 4 GAMMA RAY
PEF .barns/elec                     : 5 PEF
NPHI.%                              : 6 NEUTRON POR
~PARAMETER INFORMATION 
#MNEM.UNIT     VALUE                  DESCRIPTION
#------------------------------------------------
EKB.F        1086.000                 : ELEVATION KB
~A   DEPTH           DT        RHOB          GR         PEF        NPHI
# ...
 1502.0000      50.2344      2.9643     10.9688      4.6250      0.4219
 1503.0000      49.9375      2.9414     14.7344      5.1688      1.1250
 1504.0000      50.3125      2.9185     15.7188      4.8469      1.3375
 1505.0000      50.7500      2.9124     15.4219      4.3375      0.9344
 1506.0000      50.5625      2.9318     15.9062      4.4938      1.2656
 1507.0000      49.7188      2.9450     19.2812      5.3156      3.7219
 1508.0000      49.1094      2.9258     20.3750      3.9500      5.6344
 1509.0000      48.9844      2.8418     21.8281      3.5125      7.9000
 1510.0000      49.1719      2.8178     22.9062      3.9750      8.5625
 1511.0000      49.1562      2.8280     23.0156      3.6750      8.0094
 1512.0000      49.3594      2.8220     27.0156      3.1437      9.0250
 1513.0000      50.0156      2.8066     33.8281      3.0531      7.9563
 1514.0000      51.2031      2.8004     35.9219      3.7313      4.9313
 1515.0000      53.0000      2.8130     26.5938      4.5687      1.9813
 1516.0000      52.4688      2.8829     17.5938      4.3750      0.7563
 1517.0000      51.9062      2.9183     13.9375      4.3625      0.9000
 1518.0000      50.9844      2.9354     15.2969      4.5687      2.0563
 1519.0000      49.8906      2.9080     18.1406      4.2656      4.3469
 1520.0000      49.1719      2.8695     22.1875      4.0188      3.5875
 1521.0000      49.6875      2.8616     21.3594      4.1844      2.9656
 1522.0000      50.0000      2.8719     20.6094      4.2250      4.8344
 1523.0000      49.1094      2.8526     21.1250      3.5375      6.6781
 1524.0000      48.6719      2.8288     19.1719      3.3469      5.7063
 1525.0000      48.8438      2.8453     15.5469      3.6719      2.6063
 1526.0000      49.7188      2.8744     12.2344      4.6375      0.5719
 1527.0000      50.2188      2.9326     10.5625      4.8375      0.6719
 1528.0000      49.7812      2.9444     13.9531      4.4938      1.8156
 1529.0000      49.6875      2.9165     29.8594      4.3719      6.4219
 1530.0000      52.2031      2.8700     44.1875      4.1656     11.7937
 1531.0000      56.2188      2.8383     40.6406      4.2500     11.3156
 1532.0000      55.7500      2.8634     24.6250      4.8313      2.7250
 1533.0000      52.3281      2.9296     15.0000      5.0312      0.6094
 1534.0000      50.7500      2.9445     11.5625      5.0312      0.0781
 1535.0000      50.2656      2.9563     11.2031      4.8625      0.0000
 1536.0000      50.4219      2.9764     11.1406      4.8031      0.3344
 1537.0000      50.0625      2.9854     15.0938      4.3375      1.6000
 1538.0000      49.1094      2.9096     19.9062      3.8344      4.0344
 1539.0000      48.7031      2.8663     19.1562      4.2031      3.1250
 1540.0000      49.0156      2.8551     15.7969      4.6469      2.6781
 1541.0000      49.2344      2.8656     14.2031      4.1188      8.0750
 1542.0000      49.4062      2.8090     14.6719      3.4594      9.5906
 1543.0000      50.0938      2.7929     19.0312      3.1469      8.1781
 1544.0000      51.6875      2.8119     21.1406      3.6125      5.5656
 1545.0000      52.3750      2.8718     17.9531      4.5062      2.2625
 1546.0000      51.4531      2.9213     15.1562      5.2875      1.4844
 1547.0000      50.9688      2.9846     19.9375      6.1688      2.1719
 1548.0000      52.8281      2.9235     24.9531      4.9813      5.4875
 1549.0000      54.3906      2.8555     21.9844      4.2812      5.3313
 1550.0000      52.9219      2.8744     17.5938      4.2156      3.3906
 1551.0000      51.6875      2.9066     17.5156      4.3250      1.7781
 1552.0000      50.5938      2.9158     18.7500      4.0656      1.2906
 1553.0000      48.9219      2.9188     20.2344      3.9188      2.2344
 1554.0000      47.5625      2.9306     23.0156      4.2375      3.6781
 1555.0000      48.3125      2.8633     23.0156      3.5719      4.4719
 1556.0000      49.4219      2.8518     22.3438      3.6688      4.0094
 1557.0000      49.6250      2.8549     25.4531      3.9688      4.3125
 1558.0000      50.9375      2.8363     25.7500      4.2031      4.5438
 1559.0000      51.9688      2.8431     19.2344      4.5563      2.1000
 1560.0000      51.5469      2.9108     11.4375      4.6969      0.8875
 1561.0000      50.4062      2.9723     12.7031      4.1625      5.2812
 1562.0000      49.1719      2.9621     18.2031      3.7031      7.8594
 1563.0000      48.5781      2.8628     29.5312      3.5375      8.4563
 1564.0000      49.8906      2.8166     35.0938      3.8563      8.4875
 1565.0000      50.5312      2.8123     33.8750      4.1219      8.3656
 1566.0000      49.2031      2.8276     36.7969      3.4000      8.2188
 1567.0000      47.8438      2.8235     41.2812      3.2188      7.1375
 1568.0000      47.6719      2.8235     34.8281      3.4844      5.2281
 1569.0000      48.1719      2.8375     24.8281      3.9562      5.0062
 1570.0000      48.4062      2.8528     24.8594      3.6156      7.1844
 1571.0000      48.6875      2.8383     28.1406      3.3469      7.8344
 1572.0000      49.9219      2.8218     32.8281      3.1219      8.7406
 1573.0000      51.0156      2.8115     32.1562      2.9688      9.4406
 1574.0000      51.1875      2.8153     28.3125      2.9875      8.8469
 1575.0000      50.0781      2.8311     26.7188      3.3031      7.2125
 1576.0000      49.6562      2.8439     27.5625      3.9781      6.3500
 1577.0000      50.8594      2.8470     25.6719      4.5813      6.2594
 1578.0000      51.5312      2.8535     21.8281      4.7031      7.1688
 1579.0000      50.5312      2.8384     18.0938      6.8031      8.0563
 1580.0000      50.2031      2.8480     14.8125      8.8125      5.7250
 1581.0000      50.2656      3.0496     13.5469      6.7000      1.6187
 1582.0000      51.3125      3.0154     15.3438      5.3969      1.5781
 1583.0000      52.7188      2.9429     18.3125      5.0875      2.2719
 1584.0000      52.4219      2.9235     20.6719      4.4625      5.8187
 1585.0000      50.9844      2.8689     19.8125      3.5094      7.0250
 1586.0000      50.2969      2.8726     19.8281      4.0656      5.2375
 1587.0000      50.0625      2.9059     20.7031      4.0938      8.3125
 1588.0000      49.0781      2.8181     19.9844      3.6906      7.2063
 1589.0000      48.9844      2.8364     19.1094      4.0344      5.7750
 1590.0000      49.4375      2.8804     17.7500      4.1031      6.0781
 1591.0000      49.8750      2.8434     15.3594      3.8781      5.4531
 1592.0000      51.2188      2.9153     14.5000      4.6219      1.7594
 1593.0000      52.5156      2.9719     14.7500      4.8938      1.3344
 1594.0000      53.5625      2.9646     14.3438      5.0906      1.4969
 1595.0000      53.9062      2.9481     13.4219      5.8969      1.5156
 1596.0000      53.5000      2.9625     12.1094      6.3531      1.4813
 1597.0000      52.9844      2.9831     11.1719      5.1688      1.4125
 1598.0000      52.7188      2.9754     11.4375      4.3875      1.1844
 1599.0000      52.5000      2.9580     15.1562      4.3438      1.1500
 1600.0000      52.3438      2.9616     20.7969      4.6219      1.7969
 1601.0000      52.1875      2.9549     27.3125      4.4188      4.5687
 1602.0000      52.0938      2.8946     30.8594      4.4750      6.6063
 1603.0000      50.8125      2.8576     31.6562      4.0531      6.9781
 1604.0000      50.0156      2.8411     32.2031      3.6125      6.4813
 1605.0000      50.1250      2.8310     34.6719      3.5875      6.4656
 1606.0000      52.7969      2.8310     37.2031      3.7344      6.5813
 1607.0000      53.8281      2.8270     33.3750      3.7719      5.7562
 1608.0000      54.0312      2.8573     33.5781      4.2219      4.8750
 1609.0000      54.5625      2.8483     40.1250      4.2625      6.3781
 1610.0000      54.8281      2.8304     37.8125      3.9500      8.7812
 1611.0000      54.5625      2.8405     33.8594      3.9219      8.0906
 1612.0000      54.5156      2.8485     36.6250      4.0406      7.7125
 1613.0000      54.8750      2.8451     41.0625      3.8500      8.5063
