~VERSION INFORMATION 
VERS.            2.0: LAS LOG ASCII STANDARD VERSION 2.0 
WRAP.             NO: ONE LINE PER DEPTH STEP 
~WELL INFORMATION 
#MNEM.UNIT     DATA                   DESCRIPTION    
#------------------------------------------------
STRT.F      46.0000                    : 
STOP.F    5364.0000                    : 
STEP.F       1.0000                    : 
NULL.       -999.25                    : 
WELL.        J. DONALDSON #1                : WELL NAME       
LONG.        0.0000000                      : LONGITUDE       
LAT.         0.0000000                      : LATITUDE        
SEC.         15                             : SECTION         
STAT.        OH                             : STATE           
TWP.         MILLER                              : TOWNSHIP        
PROJ.        RED #326                       : PROJECT         
DATE.        90/12/17                       : DATE            
OPER.        EDCO DRLG & PROD               : OPERATOR        
ORIG.        KB                             : LOG ORIGIN      
API.         3408323915                     : API             
CMNT1.       API SERIAL # 3-4093-2          : COMMENT 1       
CMNT2.       PERMIT #3915                   : COMMENT 2       
RGE.         1                              : RANGE           
CNTY.        KNOX                           : COUNTY          
LOC.         560'NL & 1056'EL OF SEC 15     : LOCATION DESC   
~TOPS
BIG LIME              1336.00
BASE BIG LIME         2084.00
PACKER SHELL          2170.00
STRAY                 2208.00
TRENTON               3522.00
BLACK RIVER           3678.00
GULL RIVER            4062.00
GLENWOOD              4122.00
TREMPEALEAU           4160.00
LCR                   4364.00
CONASAUGA             4660.00
ROME                  4762.00
MT. SIMON             5132.00
GRANITE               5234.00
~CURVE INFORMATION 
#MNEM.UNIT     API CODE               CURVE DESCRIPTION
#------------------------------------------------------
DEPT.F                                 : 1 DEPTH
DT  .usec/ft                        : 2 SONIC
RHOB.gm/cc                          : 3 DENSITY
GR  .API UNITS                      : 4 GAMMA RAY
PEF .barns/elec                     : 5 PEF
NPHI.%                              : 6 NEUTRON POR
~PARAMETER INFORMATION 
#MNEM.UNIT     VALUE                  DESCRIPTION
#------------------------------------------------
EKB.F        1086.000                 : ELEVATION KB
~A   DEPTH           DT        RHOB          GR         PEF        NPHI
# ...
 2398.0000      69.9688      2.7083     91.7188      4.0687     21.7812
 2399.0000      68.8750      2.6961     93.0938      3.6844     19.4500
 2400.0000      69.3438      2.6950    103.7344      3.5187     18.9000
 2401.0000      72.4062      2.6991    108.4844      3.6688     23.7625
 2402.0000      73.7344      2.7038    110.7031      3.7938     25.1719
 2403.0000      74.8594      2.7108    111.8750      3.7281     26.3844
 2404.0000      75.5625      2.7176    109.6094      3.8406     27.5938
 2405.0000      75.0000      2.7183    107.0938      3.9688     27.2688
 2406.0000      73.7188      2.7201    103.7969      3.8906     26.3594
 2407.0000      74.0625      2.7245    106.6250      3.8250     25.7313
 2408.0000      74.9375      2.7244    108.9531      4.0469     25.7531
 2409.0000      74.6250      2.7128    108.0000      4.1031     23.1156
 2410.0000      74.5156      2.7038    107.8906      4.0500     22.5531
 2411.0000      75.1875      2.7043    113.2656      3.8750     24.7063
 2412.0000      76.1094      2.6991    120.4531      3.5750     25.7844
 2413.0000      76.6562      2.6973    119.9062      3.4250     25.2437
 2414.0000      76.1094      2.6930    114.9844      3.5531     23.2469
 2415.0000      74.3125      2.6950    106.5469      3.9250     22.8188
 2416.0000      74.5625      2.7181    102.1406      3.9813     24.4156
 2417.0000      74.0781      2.7259     99.0312      4.0406     23.4125
 2418.0000      71.4531      2.7120     98.3281      4.0062     21.7063
 2419.0000      71.7031      2.7011    101.8594      3.8594     22.9406
 2420.0000      74.0781      2.7110    107.1250      3.7594     24.2375
 2421.0000      75.1406      2.7118    106.9531      3.8438     24.5125
 2422.0000      73.5000      2.6934     93.7500      4.0188     18.5281
 2423.0000      65.3906      2.6869     64.9844      4.2625     12.7719
 2424.0000      59.6250      2.7044     53.3125      4.3156     10.4187
 2425.0000      61.1719      2.7191     71.7812      3.8438     15.7906
 2426.0000      66.2500      2.7254     79.7188      3.6281     18.4094
 2427.0000      67.6094      2.7196     81.4375      3.6844     18.8906
 2428.0000      67.0156      2.7163     79.2656      3.7156     18.6187
 2429.0000      65.5156      2.7193     75.6875      3.7250     16.9188
 2430.0000      65.2031      2.7230     79.2031      3.8281     16.5813
 2431.0000      68.9219      2.7180     93.9219      4.0031     19.9594
 2432.0000      70.1250      2.7050     90.4531      3.8688     19.7969
 2433.0000      68.9688      2.7046     86.8750      3.9562     18.5188
 2434.0000      68.5781      2.7048     83.0156      4.0500     19.3719
 2435.0000      67.7188      2.7065     73.6719      4.1125     16.4156
 2436.0000      65.8906      2.7086     77.2344      4.3000     15.5000
 2437.0000      67.0938      2.7000     87.2656      3.9781     20.6656
 2438.0000      76.1875      2.6945    104.7969      3.7750     27.6187
 2439.0000      78.1562      2.7060    113.5938      3.8406     26.7063
 2440.0000      77.5156      2.7134    112.4531      3.9031     25.5656
 2441.0000      76.6562      2.7148    113.3281      3.8469     26.0406
 2442.0000      76.5938      2.7114    109.7500      3.6344     27.0469
 2443.0000      76.4375      2.7025    102.7344      3.5000     24.9531
 2444.0000      74.7031      2.6951     97.5156      3.5531     22.2375
 2445.0000      72.7812      2.7045     98.8281      3.9000     21.9875
 2446.0000      74.6094      2.7256    107.0156      4.2375     25.7125
 2447.0000      77.2969      2.7148    112.3594      3.9969     26.6187
 2448.0000      77.5000      2.7024    115.0000      3.6938     26.2219
 2449.0000      78.1875      2.6964    116.9375      3.5469     27.2719
 2450.0000      78.4844      2.6973    113.7500      3.4750     27.0938
 2451.0000      76.7969      2.7048    103.1250      3.5438     23.1969
 2452.0000      72.6406      2.7210     90.9844      3.7875     20.1562
 2453.0000      70.2812      2.7269     87.7344      3.9094     19.5406
 2454.0000      71.0312      2.7271     88.3750      3.8719     19.2875
 2455.0000      71.1406      2.7293     93.5781      3.7750     19.9469
 2456.0000      72.0625      2.7280     96.9219      3.9000     22.4000
 2457.0000      72.1562      2.7201     97.4375      4.1312     21.1500
 2458.0000      74.9688      2.7076    103.9531      4.1063     24.8531
 2459.0000      76.9688      2.6973    107.5625      4.1625     25.5813
 2460.0000      75.9062      2.6781    109.4531      4.2625     24.0656
 2461.0000      78.3438      2.6466    116.2031      4.1875     28.0969
 2462.0000      82.4375      2.6691    117.2812      3.9469     30.2531
 2463.0000      82.7812      2.6820    115.8906      3.6094     29.5969
 2464.0000      81.7031      2.7069    115.5938      3.4969     28.7063
 2465.0000      78.1250      2.6644    115.9531      3.4688     29.8906
 2466.0000      76.7500      2.6648    116.0469      3.5125     31.3219
 2467.0000      76.8594      2.6930    117.2188      3.6437     30.2188
 2468.0000      78.6719      2.6988    120.6562      3.7625     28.8875
 2469.0000      79.9844      2.7039    119.7812      3.8531     29.1406
 2470.0000      79.3125      2.7059    115.4531      3.8500     27.3031
 2471.0000      77.0312      2.7033    105.4531      3.8344     23.7219
 2472.0000      73.0781      2.7079     98.9688      4.1906     21.2906
 2473.0000      71.8594      2.7158    102.4375      3.8844     24.2063
 2474.0000      72.8125      2.7216    111.3594      3.6344     25.6031
 2475.0000      74.7031      2.7199    116.7969      3.9844     26.4281
 2476.0000      76.5938      2.7123    117.3906      4.3625     29.7563
 2477.0000      78.9688      2.7109    117.2344      4.2469     29.5562
 2478.0000      80.6406      2.7115    118.0156      4.1688     28.3656
 2479.0000      79.7500      2.7089    117.6250      4.0438     26.5063
 2480.0000      77.2500      2.7043    115.3750      4.0375     27.2938
 2481.0000      75.8750      2.7058    114.9375      4.1562     28.2250
 2482.0000      75.6719      2.7068    117.1875      4.0312     29.3094
 2483.0000      75.7344      2.7040    115.5156      3.9469     29.9156
 2484.0000      75.5469      2.7013    111.9531      3.8500     29.3438
 2485.0000      76.0781      2.7029    110.0938      3.8500     28.3625
 2486.0000      76.3281      2.6994    112.4844      3.9000     25.2031
 2487.0000      75.4375      2.6951    114.5312      3.8875     23.5844
 2488.0000      74.1875      2.6946    117.5312      4.0000     26.4062
 2489.0000      74.2969      2.6938    122.9219      3.9531     28.0750
 2490.0000      74.5000      2.7005    130.0312      3.8875     27.0438
 2491.0000      73.6094      2.7035    113.9375      3.8781     24.0500
 2492.0000      72.2812      2.6971    103.8438      3.9344     21.7469
 2493.0000      70.6719      2.6876     97.0938      4.1406     20.5469
 2494.0000      69.3906      2.6821     93.4219      4.1531     19.7250
 2495.0000      68.4844      2.6859     92.0938      3.9938     19.2406
 2496.0000      69.0781      2.6975     97.4531      3.8813     20.2469
 2497.0000      69.6094      2.6989     98.8906      3.7531     20.5438
 2498.0000      69.2656      2.6948     98.2500      3.8094     19.7500
 2499.0000      69.0469      2.6853     99.9219      3.7625     20.4188
 2500.0000      71.1094      2.6825    107.9062      3.7719     23.7594
 2501.0000      73.7188      2.6934    117.4375      3.9219     24.7500
 2502.0000      75.6406      2.6979    116.0625      3.8000     25.0063
 2503.0000      75.0781      2.7036    108.6719      3.3656     24.4188
 2504.0000      72.6094      2.7051    101.8906      3.5906     20.9406
 2505.0000      70.1875      2.6988     99.1250      3.7469     19.4719
 2506.0000      70.1406      2.6944    102.0312      3.6375     20.1875
 2507.0000      70.9688      2.6935    104.2812      3.4813     20.9219
 2508.0000      71.6406      2.6928    105.8750      3.5187     20.8625
 2509.0000      71.6719      2.6945     97.7812      3.5969     20.8094
