~VERSION INFORMATION 
VERS.            2.0: LAS LOG ASCII STANDARD VERSION 2.0 
WRAP.             NO: ONE LINE PER DEPTH STEP 
~WELL INFORMATION 
#MNEM.UNIT     DATA                   DESCRIPTION    
#------------------------------------------------
STRT.F      46.0000                    : 
STOP.F    5364.0000                    : 
STEP.F       1.0000                    : 
NULL.       -999.25                    : 
WELL.        J. DONALDSON #1                : WELL NAME       
LONG.        0.0000000                      : LONGITUDE       
LAT.         0.0000000                      : LATITUDE        
SEC.         15                             : SECTION         
STAT.        OH                             : STATE           
TWP.         MILLER                              : TOWNSHIP        
PROJ.        RED #326                       : PROJECT         
DATE.        90/12/17                       : DATE            
OPER.        EDCO DRLG & PROD               : OPERATOR        
ORIG.        KB                             : LOG ORIGIN      
API.         3408323915                     : API             
CMNT1.       API SERIAL # 3-4093-2          : COMMENT 1       
CMNT2.       PERMIT #3915                   : COMMENT 2       
RGE.         1                              : RANGE           
CNTY.        KNOX                           : COUNTY          
LOC.         560'NL & 1056'EL OF SEC 15     : LOCATION DESC   
~TOPS
BIG LIME              1336.00
BASE BIG LIME         2084.00
PACKER SHELL          2170.00
STRAY                 2208.00
TRENTON               3522.00
BLACK RIVER           3678.00
GULL RIVER            4062.00
GLENWOOD              4122.00
TREMPEALEAU           4160.00
LCR                   4364.00
CONASAUGA             4660.00
ROME                  4762.00
MT. SIMON             5132.00
GRANITE               5234.00
~CURVE INFORMATION 
#MNEM.UNIT     API CODE               CURVE DESCRIPTION
#------------------------------------------------------
DEPT.F                                 : 1 DEPTH
DT  .usec/ft                        : 2 SONIC
RHOB.gm/cc                          : 3 DENSITY
GR  .API UNITS                      : 4 GAMMA RAY
PEF .barns/elec                     : 5 PEF
NPHI.%                              : 6 NEUTRON POR
~PARAMETER INFORMATION 
#MNEM.UNIT     VALUE                  DESCRIPTION
#------------------------------------------------
EKB.F        1086.000                 : ELEVATION KB
~A   DEPTH           DT        RHOB          GR         PEF        NPHI
# ...
  942.0000      94.2344      2.5484    166.3281      3.0844     31.9156
  943.0000      94.1719      2.5594    164.6562      3.1656     30.2938
  944.0000      94.3750      2.5449    171.1250      3.1531     30.6781
  945.0000      94.5469      2.5235    168.1875      3.1125     31.9438
  946.0000      94.0312      2.5220    163.2656      3.1156     31.1000
  947.0000      93.6719      2.5375    163.0469      3.1375     30.3469
  948.0000      93.3281      2.5469    162.0312      3.1281     29.8156
  949.0000      92.8594      2.5505    159.8594      3.0406     29.6125
  950.0000      93.2656      2.5489    165.7969      2.8937     29.9062
  951.0000      93.7031      2.5361    174.0625      2.8719     32.3750
  952.0000      94.0625      2.5241    174.9688      3.0719     33.4062
  953.0000      94.2500      2.5144    173.3906      3.1188     34.9750
  954.0000      93.7188      2.5010    167.3438      3.0125     32.3375
  955.0000      93.0312      2.5203    164.6250      2.9781     29.3313
  956.0000      93.1250      2.5235    165.2812      3.0563     29.4813
  957.0000      92.7812      2.5166    159.0938      3.1531     29.7875
  958.0000      92.4219      2.5236    155.7188      3.1156     29.8531
  959.0000      92.3750      2.5184    162.7344      3.1031     29.5000
  960.0000      92.6875      2.5115    170.7969      2.9688     30.7688
  961.0000      93.2969      2.5083    175.6094      2.8656     31.5562
  962.0000      93.5156      2.5004    174.2812      2.8719     31.9594
  963.0000      93.5156      2.5020    171.2031      2.8281     31.3687
  964.0000      93.9844      2.5083    169.1875      2.7969     31.3188
  965.0000      94.2812      2.5144    168.0000      2.8813     31.5813
  966.0000      94.5469      2.5183    174.4531      3.0187     33.2719
  967.0000      94.7500      2.4980    182.2344      3.0344     33.8312
  968.0000      94.6719      2.4851    180.2500      3.0375     31.5594
  969.0000      94.7031      2.4924    175.3125      3.0531     31.5875
  970.0000      94.7969      2.5038    169.8281      2.9188     32.9188
  971.0000      94.6094      2.5179    165.0781      2.8625     32.6000
  972.0000      94.5156      2.5240    163.4062      2.9375     32.4562
  973.0000      94.3906      2.5184    169.1719      3.0406     32.8438
  974.0000      94.8906      2.5169    176.7656      2.9594     34.1781
  975.0000      95.7031      2.5123    174.6562      2.8781     34.2313
  976.0000      95.8125      2.5048    168.6250      2.9031     32.6625
  977.0000      95.2812      2.5039    158.8281      2.9875     29.4844
  978.0000      94.8594      2.5321    153.9375      3.0406     31.6187
  979.0000      95.2656      2.5189    154.0625      2.9719     34.9000
  980.0000      95.4219      2.4971    153.8281      2.9875     34.7281
  981.0000      94.3125      2.5045    155.2031      3.1531     32.4719
  982.0000      93.4219      2.5243    164.2656      3.4000     31.1500
  983.0000      93.2031      2.5270    170.8750      3.3125     30.9875
  984.0000      93.0000      2.5234    169.7812      3.2344     32.6531
  985.0000      92.8906      2.5308    168.7031      3.2719     32.0906
  986.0000      93.1875      2.5450    167.7500      3.2500     31.4344
  987.0000      93.5000      2.5515    169.0000      3.1844     32.3969
  988.0000      93.7031      2.5401    174.5781      3.1469     32.4500
  989.0000      93.9844      2.5403    175.9219      3.2062     31.6281
  990.0000      93.8750      2.5341    171.8750      3.1594     32.3813
  991.0000      93.7031      2.5278    170.5781      3.1188     32.4281
  992.0000      93.9219      2.5258    168.6562      3.0594     31.9531
  993.0000      93.5625      2.5211    165.6719      3.0500     31.9937
  994.0000      92.8281      2.5171    165.3125      3.0906     31.5906
  995.0000      92.7969      2.5236    167.5156      3.1406     30.2594
  996.0000      92.7969      2.5201    163.3594      3.0969     30.1594
  997.0000      92.4844      2.5096    154.6406      3.0344     30.7469
  998.0000      91.7812      2.5261    151.0000      3.0375     30.2656
  999.0000      90.9688      2.5438    150.5781      3.0938     29.6438
 1000.0000      90.8594      2.5399    155.6719      3.0812     30.5906
 1001.0000      91.0625      2.5444    158.6094      2.9531     31.6219
 1002.0000      91.4844      2.5255    155.3906      2.9625     30.8531
 1003.0000      91.7031      2.5298    148.2656      2.9625     31.3469
 1004.0000      91.9844      2.5444    143.1562      3.0688     29.8062
 1005.0000      92.5469      2.5666    137.6406      3.3344     27.6125
 1006.0000      92.5469      2.5839    132.2500      3.3719     28.6750
 1007.0000      91.6562      2.6069    129.7031      3.5063     29.6719
 1008.0000      87.2188      2.6204    113.4219      3.6562     31.6219
 1009.0000      85.1094      2.7020    102.7031      3.8625     27.5156
 1010.0000      86.5625      2.7453    120.0938      3.8719     25.1313
 1011.0000      91.3594      2.7220    149.4062      3.2531     28.4062
 1012.0000      93.5156      2.5689    151.8594      3.2406     31.6000
 1013.0000      93.3594      2.5478    144.3750      3.0688     31.4219
 1014.0000      92.7031      2.5668    143.8281      3.0063     29.3344
 1015.0000      92.8906      2.5895    160.6406      3.0344     29.1000
 1016.0000      93.0469      2.5481    174.2812      3.1562     33.1437
 1017.0000      92.8281      2.5099    175.3438      3.2031     32.2469
 1018.0000      92.5938      2.5020    171.2188      3.1125     31.7469
 1019.0000      92.6562      2.5075    169.1875      2.9781     31.2781
 1020.0000      92.8594      2.5231    167.7344      2.9875     31.8906
 1021.0000      93.1562      2.5139    161.9844      3.0781     33.7719
 1022.0000      92.3750      2.5184    162.2656      3.3625     33.2344
 1023.0000      92.1875      2.5305    169.6875      3.3063     31.2563
 1024.0000      92.8125      2.5150    182.1406      3.2313     31.5750
 1025.0000      93.0312      2.4896    185.4688      3.1562     31.5312
 1026.0000      93.5469      2.4770    189.9375      3.0625     33.2656
 1027.0000      94.0625      2.4811    183.6406      2.9906     34.3688
 1028.0000      92.8438      2.4865    164.9062      2.9844     32.9938
 1029.0000      90.0625      2.5024    156.0781      3.1250     30.5531
 1030.0000      90.4531      2.5349    167.9062      3.2281     30.5406
 1031.0000      91.7031      2.5088    170.3438      3.0031     31.5781
 1032.0000      92.2656      2.5143    168.3125      3.0187     31.7031
 1033.0000      95.5938      2.4651    174.9531      3.0187     33.9313
 1034.0000      96.4375      2.4180    187.9375      2.9281     35.0281
 1035.0000      94.6562      2.4183    171.7500      2.9813     32.2656
 1036.0000      90.6562      2.5320    148.4375      3.1344     29.7000
 1037.0000      91.2344      2.6026    142.7969      3.3625     30.3094
 1038.0000      91.6875      2.6053    133.8750      3.7625     30.2063
 1039.0000      90.3438      2.6165    126.2969      3.7094     28.4813
 1040.0000      89.6406      2.6684    121.4531      3.5844     27.5094
 1041.0000      90.1719      2.6809    125.7344      3.2812     28.3000
 1042.0000      91.7812      2.6541    137.3281      3.3281     30.0469
 1043.0000      93.5938      2.6181    139.0469      3.6250     31.0281
 1044.0000      93.8750      2.6269    135.0781      3.6094     31.7531
 1045.0000      94.1719      2.6276    133.3594      3.3750     32.5625
 1046.0000      94.1406      2.6300    137.0000      3.1906     32.4906
 1047.0000      94.4688      2.6275    156.7500      3.1437     32.0969
 1048.0000      94.8281      2.5785    181.4219      3.2812     32.5031
 1049.0000      94.2344      2.5353    174.1250      3.6000     32.6094
 1050.0000      93.3438      2.5265    169.8281      3.5438     32.1125
 1051.0000      93.0000      2.5215    177.7344      3.3438     31.5312
 1052.0000      93.6562      2.5053    187.0781      3.2906     34.1594
 1053.0000      94.1719      2.4975    184.9688      3.3188     32.6813
