~VERSION INFORMATION 
VERS.            2.0: LAS LOG ASCII STANDARD VERSION 2.0 
WRAP.             NO: ONE LINE PER DEPTH STEP 
~WELL INFORMATION 
#MNEM.UNIT     DATA                   DESCRIPTION    
#------------------------------------------------
STRT.F      46.0000                    : 
STOP.F    5364.0000                    : 
STEP.F       1.0000                    : 
NULL.       -999.25                    : 
WELL.        J. DONALDSON #1                : WELL NAME       
LONG.        0.0000000                      : LONGITUDE       
LAT.         0.0000000                      : LATITUDE        
SEC.         15                             : SECTION         
STAT.        OH                             : STATE           
TWP.         MILLER                              : TOWNSHIP        
PROJ.        RED #326                       : PROJECT         
DATE.        90/12/17                       : DATE            
OPER.        EDCO DRLG & PROD               : OPERATOR        
ORIG.        KB                             : LOG ORIGIN      
API.         3408323915                     : API             
CMNT1.       API SERIAL # 3-4093-2          : COMMENT 1       
CMNT2.       PERMIT #3915                   : COMMENT 2       
RGE.         1                              : RANGE           
CNTY.        KNOX                           : COUNTY          
LOC.         560'NL & 1056'EL OF SEC 15     : LOCATION DESC   
~TOPS
BIG LIME              1336.00
BASE BIG LIME         2084.00
PACKER SHELL          2170.00
STRAY                 2208.00
TRENTON               3522.00
BLACK RIVER           3678.00
GULL RIVER            4062.00
GLENWOOD              4122.00
TREMPEALEAU           4160.00
LCR                   4364.00
CONASAUGA             4660.00
ROME                  4762.00
MT. SIMON             5132.00
GRANITE               5234.00
~CURVE INFORMATION 
#MNEM.UNIT     API CODE               CURVE DESCRIPTION
#------------------------------------------------------
DEPT.F                                 : 1 DEPTH
DT  .usec/ft                        : 2 SONIC
RHOB.gm/cc                          : 3 DENSITY
GR  .API UNITS                      : 4 GAMMA RAY
PEF .barns/elec                     : 5 PEF
NPHI.%                              : 6 NEUTRON POR
~PARAMETER INFORMATION 
#MNEM.UNIT     VALUE                  DESCRIPTION
#------------------------------------------------
EKB.F        1086.000                 : ELEVATION KB
~A   DEPTH           DT        RHOB          GR         PEF        NPHI
# ...
 2734.0000      70.8750      2.7008     99.2500      3.8969     19.8469
 2735.0000      72.2188      2.6913    101.2188      3.7000     21.2281
 2736.0000      71.6562      2.6848     99.3125      3.8656     20.9625
 2737.0000      71.6562      2.6855     99.2812      3.9438     19.8750
 2738.0000      72.7188      2.7013     99.7969      3.8406     23.1250
 2739.0000      73.6250      2.7134     99.9219      3.9062     23.8250
 2740.0000      71.2656      2.7156     91.1875      4.0250     22.5969
 2741.0000      64.5156      2.7231     65.8594      4.2531     16.0844
 2742.0000      64.3594      2.7313     78.7500      4.4437     15.9750
 2743.0000      68.8281      2.7171     95.7500      3.8188     17.8656
 2744.0000      71.5156      2.7054    101.7500      3.4188     19.9500
 2745.0000      72.0312      2.7081     99.5000      3.2781     22.1594
 2746.0000      70.6875      2.7093     90.9062      3.5312     21.9062
 2747.0000      70.0938      2.7014     89.0625      3.7969     19.7938
 2748.0000      70.7344      2.6938     89.7969      3.8312     20.1875
 2749.0000      71.6250      2.6861     93.7656      3.9625     19.6281
 2750.0000      70.7188      2.6810     94.9062      3.8813     21.7250
 2751.0000      69.9219      2.6864     94.1406      3.8813     19.7000
 2752.0000      72.0312      2.6986     97.4844      3.6875     19.5188
 2753.0000      71.6719      2.7034     91.5156      4.1094     22.4188
 2754.0000      66.4844      2.7018     75.1875      4.2219     15.1750
 2755.0000      66.9062      2.7095     81.2969      3.6906     13.4875
 2756.0000      71.8438      2.7101     93.3281      3.5063     20.0375
 2757.0000      72.1094      2.6998     97.3906      3.6844     21.3938
 2758.0000      71.5000      2.7016     96.2344      4.1719     21.2250
 2759.0000      69.6406      2.7049     92.6875      4.1625     19.1656
 2760.0000      67.3438      2.7064     90.1562      3.7844     18.1594
 2761.0000      67.8125      2.7018     91.5625      3.6375     19.3406
 2762.0000      69.7656      2.6966     99.0469      3.5969     21.3344
 2763.0000      71.2188      2.6924     99.7656      3.5656     22.1594
 2764.0000      70.4531      2.6949     95.2031      3.5156     19.2750
 2765.0000      68.5156      2.7138     90.7344      3.5969     17.1906
 2766.0000      68.6094      2.7144     90.2344      3.5094     18.3375
 2767.0000      69.0938      2.7061     91.9375      3.5156     18.5750
 2768.0000      67.7344      2.6964     88.4531      3.8094     16.4250
 2769.0000      65.7188      2.6938     84.3750      3.8344     15.4844
 2770.0000      66.1094      2.6956     85.5938      3.4500     17.1875
 2771.0000      67.3125      2.7038     91.4688      3.4844     18.2938
 2772.0000      70.4844      2.7180    101.2344      3.6000     20.9000
 2773.0000      71.9219      2.7175    103.1094      3.6938     21.6688
 2774.0000      71.2344      2.7110     95.2812      3.8281     20.0531
 2775.0000      66.8438      2.7055     84.5781      4.1219     16.7188
 2776.0000      65.2656      2.7063     77.1250      3.8844     16.3625
 2777.0000      68.0000      2.7090     82.2031      3.6594     18.7469
 2778.0000      70.1406      2.7093     92.2188      3.6219     20.6719
 2779.0000      71.2812      2.7059     98.0312      3.6406     23.5625
 2780.0000      71.1719      2.7091     96.6250      3.8344     21.9125
 2781.0000      69.8750      2.7069     91.4688      3.9344     20.3344
 2782.0000      67.4844      2.7060     86.0938      4.1469     17.7594
 2783.0000      66.2812      2.7105     83.5156      3.8188     16.3219
 2784.0000      68.7344      2.7075     91.6562      3.7563     19.5688
 2785.0000      70.6094      2.7045     93.2188      3.8875     20.2156
 2786.0000      69.1719      2.7146     86.8750      4.2844     17.1313
 2787.0000      66.4375      2.7114     80.4531      4.3531     14.9812
 2788.0000      65.6094      2.6993     80.9844      3.9844     15.4625
 2789.0000      67.6875      2.6883     89.7812      3.4688     18.2563
 2790.0000      70.4062      2.7006    102.2031      3.4719     22.0906
 2791.0000      71.3906      2.7023    102.6406      3.5875     22.0250
 2792.0000      71.1562      2.7048     99.9688      3.7281     20.0938
 2793.0000      70.2031      2.7083     97.2969      3.8094     19.8375
 2794.0000      69.0625      2.7080     92.8125      3.9250     19.8594
 2795.0000      68.0625      2.7060     87.3281      4.0125     19.2812
 2796.0000      67.0469      2.7105     84.5312      3.8156     17.2812
 2797.0000      66.9688      2.7188     85.5781      3.7469     18.1812
 2798.0000      68.9844      2.7211     89.0469      3.7469     20.0906
 2799.0000      70.3438      2.7146     91.0469      3.7906     21.0938
 2800.0000      68.4531      2.7156     85.4219      4.0781     17.7969
 2801.0000      64.2500      2.7273     72.6406      3.8031     12.1844
 2802.0000      65.1094      2.7276     83.2344      3.4594     16.5312
 2803.0000      69.3438      2.7179     95.7812      3.2438     21.0625
 2804.0000      70.1875      2.7136     92.5156      3.5250     20.9781
 2805.0000      68.8281      2.7124     87.3906      3.9688     19.8313
 2806.0000      68.4531      2.7116     84.9844      3.8813     18.9688
 2807.0000      68.2188      2.7153     85.4688      3.9594     18.0281
 2808.0000      66.9688      2.7164     84.9375      4.1688     16.5406
 2809.0000      67.2656      2.7078     84.9375      4.2500     17.7219
 2810.0000      68.4062      2.6931     89.1562      4.0750     18.7812
 2811.0000      68.9219      2.6934     93.8750      3.7406     19.6156
 2812.0000      67.9844      2.7010     88.6250      3.8063     18.5031
 2813.0000      66.1406      2.7131     80.7812      4.0031     16.2938
 2814.0000      65.1719      2.7243     77.0156      4.1219     15.1094
 2815.0000      64.1719      2.7403     72.9062      4.1562     14.7594
 2816.0000      64.5781      2.7315     74.0938      4.2906     17.2375
 2817.0000      66.9062      2.7124     82.4688      4.0687     18.6906
 2818.0000      68.6406      2.7038     86.8438      3.9125     18.4188
 2819.0000      67.5000      2.7030     86.6719      3.8344     17.5063
 2820.0000      65.9219      2.7028     84.6406      3.8156     15.3969
 2821.0000      65.1250      2.7073     81.2031      4.0438     15.6938
 2822.0000      65.9219      2.7066     80.7812      3.8531     16.5656
 2823.0000      66.7188      2.7161     83.4062      3.7219     17.4156
 2824.0000      66.9062      2.7279     85.5312      3.8000     17.7500
 2825.0000      67.5625      2.7148     89.9688      3.7906     18.2656
 2826.0000      69.0469      2.7055     94.0156      3.6469     20.5938
 2827.0000      69.3281      2.7039     94.4375      3.7687     19.5000
 2828.0000      68.2344      2.7096     94.0781      3.7500     19.3375
 2829.0000      69.4688      2.7179     96.2500      3.6063     20.9937
 2830.0000      69.5000      2.7204     93.2969      3.7000     19.8813
 2831.0000      66.6406      2.7253     80.5938      3.9656     14.3969
 2832.0000      66.1562      2.7173     83.9062      3.8688     16.6187
 2833.0000      68.2500      2.6954     92.2969      3.5719     18.9813
 2834.0000      68.8438      2.6885     91.9219      3.5156     19.1187
 2835.0000      67.1406      2.6980     89.7656      3.5688     17.2844
 2836.0000      66.5312      2.7020     91.5312      3.6219     19.0750
 2837.0000      68.5312      2.6916    101.4375      3.6344     21.3281
 2838.0000      69.8438      2.6960    105.6094      3.6000     20.5844
 2839.0000      70.0312      2.7144    101.5938      3.5938     20.6344
 2840.0000      70.2344      2.7111     99.8906      3.6250     21.5156
 2841.0000      70.8594      2.7008     98.4531      3.6625     22.3188
 2842.0000      70.3906      2.7066     92.6562      3.8750     16.9000
 2843.0000      68.2500      2.7079     86.9531      3.9656     16.3906
 2844.0000      66.2500      2.7110     83.7031      3.9062     18.2656
 2845.0000      66.7188      2.7045     83.4062      3.7313     18.4969
