~VERSION INFORMATION 
VERS.            2.0: LAS LOG ASCII STANDARD VERSION 2.0 
WRAP.             NO: ONE LINE PER DEPTH STEP 
~WELL INFORMATION 
#MNEM.UNIT     DATA                   DESCRIPTION    
#------------------------------------------------
STRT.F      46.0000                    : 
STOP.F    5364.0000                    : 
STEP.F       1.0000                    : 
NULL.       -999.25                    : 
WELL.        J. DONALDSON #1                : WELL NAME       
LONG.        0.0000000                      : LONGITUDE       
LAT.         0.0000000                      : LATITUDE        
SEC.         15                             : SECTION         
STAT.        OH                             : STATE           
TWP.         MILLER                              : TOWNSHIP        
PROJ.        RED #326                       : PROJECT         
DATE.        90/12/17                       : DATE            
OPER.        EDCO DRLG & PROD               : OPERATOR        
ORIG.        KB                             : LOG ORIGIN      
API.         3408323915                     : API             
CMNT1.       API SERIAL # 3-4093-2          : COMMENT 1       
CMNT2.       PERMIT #3915                   : COMMENT 2       
RGE.         1                              : RANGE           
CNTY.        KNOX                           : COUNTY          
LOC.         560'NL & 1056'EL OF SEC 15     : LOCATION DESC   
~TOPS
BIG LIME              1336.00
BASE BIG LIME         2084.00
PACKER SHELL          2170.00
STRAY                 2208.00
TRENTON               3522.00
BLACK RIVER           3678.00
GULL RIVER            4062.00
GLENWOOD              4122.00
TREMPEALEAU           4160.00
LCR                   4364.00
CONASAUGA             4660.00
ROME                  4762.00
MT. SIMON             5132.00
GRANITE               5234.00
~CURVE INFORMATION 
#MNEM.UNIT     API CODE               CURVE DESCRIPTION
#------------------------------------------------------
DEPT.F                                 : 1 DEPTH
DT  .usec/ft                        : 2 SONIC
RHOB.gm/cc                          : 3 DENSITY
GR  .API UNITS                      : 4 GAMMA RAY
PEF .barns/elec                     : 5 PEF
NPHI.%                              : 6 NEUTRON POR
~PARAMETER INFORMATION 
#MNEM.UNIT     VALUE                  DESCRIPTION
#------------------------------------------------
EKB.F        1086.000                 : ELEVATION KB
~A   DEPTH           DT        RHOB          GR         PEF        NPHI
# ...
 3966.0000      48.1875      2.7231     13.2656      4.4938      0.3875
 3967.0000      48.2969      2.7236     10.9062      4.6656      0.2938
 3968.0000      48.5625      2.7263     10.0938      4.8500      0.2438
 3969.0000      48.6406      2.7293     10.2969      4.9875      0.2344
 3970.0000      48.7031      2.7286     10.9219      4.6688      0.2469
 3971.0000      48.6250      2.7181     12.0938      4.5500      0.2938
 3972.0000      48.5938      2.7154     13.2812      5.0312      0.3531
 3973.0000      48.6250      2.7238     13.0000      5.0687      0.4375
 3974.0000      48.7500      2.7273     11.8438      4.9656      0.5000
 3975.0000      48.7812      2.7380     11.7812      4.7438      0.5219
 3976.0000      48.6094      2.7456     10.9844      4.7375      0.5250
 3977.0000      48.8438      2.7434     12.1562      4.7906      0.4250
 3978.0000      49.1250      2.7336     13.5469      4.8625      0.2906
 3979.0000      48.8750      2.7318     11.8906      4.8500      0.1969
 3980.0000      48.3750      2.7278     10.8281      4.8187      0.2438
 3981.0000      48.1875      2.7263     10.9375      5.1844      0.2969
 3982.0000      48.1406      2.7274     11.5781      5.1344      0.2000
 3983.0000      48.1719      2.7323     11.7812      4.7188      0.1469
 3984.0000      48.3750      2.7438     11.5312      4.3281      0.1656
 3985.0000      48.6562      2.7538     16.0312      4.6250      0.1906
 3986.0000      49.0469      2.7416     25.4375      5.2625      0.2375
 3987.0000      49.4688      2.7310     27.8750      5.2812      0.3375
 3988.0000      49.0625      2.7199     20.3438      4.9688      0.4688
 3989.0000      48.7031      2.7158     16.4062      4.6250      0.5719
 3990.0000      49.0000      2.7268     17.9531      4.4281      0.5406
 3991.0000      49.7812      2.7356     18.8594      4.2750      0.6438
 3992.0000      50.2500      2.7369     18.5000      4.2375      0.8281
 3993.0000      50.3594      2.7374     19.2969      4.4531      0.9844
 3994.0000      49.9844      2.7435     19.2188      4.7125      1.1250
 3995.0000      49.8594      2.7394     18.1562      4.5438      1.1438
 3996.0000      50.4219      2.7340     20.0469      4.5219      1.3188
 3997.0000      50.5000      2.7340     18.7188      4.6156      1.3656
 3998.0000      49.7031      2.7368     16.3750      4.6031      1.0438
 3999.0000      48.9062      2.7406     14.4062      4.6156      0.7375
 4000.0000      48.4688      2.7506     13.6875      4.4656      0.5281
 4001.0000      48.8906      2.7540     17.3438      4.3156      0.5344
 4002.0000      49.9062      2.7458     19.7188      4.4156      0.7406
 4003.0000      50.3594      2.7389     19.5625      4.4531      1.0656
 4004.0000      49.7969      2.7389     17.3906      4.4406      1.0531
 4005.0000      49.0156      2.7405     16.0000      4.4688      0.7344
 4006.0000      48.5781      2.7341     15.4844      4.5875      0.3938
 4007.0000      48.0938      2.7271     14.3125      4.7469      0.2219
 4008.0000      47.8594      2.7220     13.7188      4.7594      0.1781
 4009.0000      48.8906      2.7235     15.6094      4.8156      0.2313
 4010.0000      49.8125      2.7356     18.6094      5.0094      0.5563
 4011.0000      50.0625      2.7339     18.2188      4.5625      0.8281
 4012.0000      49.0469      2.7238     15.6094      4.4062      0.5844
 4013.0000      48.4844      2.7280     15.2188      4.4844      0.3125
 4014.0000      48.8906      2.7326     17.4062      4.7219      0.4125
 4015.0000      49.5312      2.7399     19.6406      4.4938      0.6875
 4016.0000      50.1406      2.7495     21.4688      4.4406      0.9250
 4017.0000      50.2500      2.7445     21.8750      4.7250      0.9406
 4018.0000      49.7969      2.7340     20.2344      4.9313      0.8469
 4019.0000      49.2812      2.7256     18.8438      5.1188      0.6406
 4020.0000      49.0312      2.7230     18.4375      5.1531      0.4563
 4021.0000      49.0312      2.7294     18.2188      5.2438      0.3000
 4022.0000      49.4688      2.7298     17.8750      5.0813      0.3250
 4023.0000      50.0469      2.7223     19.0000      4.9875      0.4906
 4024.0000      50.8281      2.7205     23.5469      4.8187      0.7375
 4025.0000      51.4531      2.7276     26.4219      4.8563      0.9938
 4026.0000      50.6094      2.7301     23.1719      4.7469      1.0281
 4027.0000      49.2031      2.7279     19.8906      5.0687      0.4781
 4028.0000      49.2031      2.7221     20.7500      5.0594      0.0375
 4029.0000      50.0000      2.7125     25.4219      5.0188      0.2594
 4030.0000      51.1719      2.7124     31.6562      4.7969      0.8438
 4031.0000      51.4375      2.7143     31.0469      4.4625      1.0969
 4032.0000      51.2188      2.7121     29.7969      4.4313      1.1875
 4033.0000      51.4688      2.7093     30.8438      4.5469      1.1812
 4034.0000      51.8438      2.7116     32.5625      4.8844      1.2563
 4035.0000      52.1094      2.7095     33.5000      5.0750      1.4125
 4036.0000      52.6406      2.7006     35.3438      4.8500      1.4625
 4037.0000      53.3906      2.6919     35.8594      4.7125      1.6219
 4038.0000      54.7188      2.6938     39.5000      4.9594      2.0219
 4039.0000      56.2031      2.6971     45.8125      4.7750      3.2188
 4040.0000      54.9531      2.6943     47.7188      4.4469      5.6063
 4041.0000      52.9375      2.6946     41.2344      4.2281      5.0750
 4042.0000      52.2812      2.7026     31.4688      4.3469      3.1719
 4043.0000      52.2969      2.7086     32.4062      4.6500      2.4813
 4044.0000      51.5000      2.7129     30.8906      4.7031      2.1000
 4045.0000      50.9062      2.7195     28.1719      4.8031      1.6844
 4046.0000      51.2188      2.7235     27.8750      4.7562      1.6594
 4047.0000      51.7656      2.7208     27.3906      4.7375      1.8250
 4048.0000      51.2031      2.7188     25.9062      4.9625      1.6438
 4049.0000      50.2031      2.7221     23.7344      5.0781      1.3062
 4050.0000      49.8906      2.7266     21.7344      4.4344      0.9406
 4051.0000      49.2344      2.7321     20.3906      4.3000      0.7281
 4052.0000      48.5312      2.7335     19.3125      4.6375      0.5031
 4053.0000      48.3125      2.7313     18.8125      4.8812      0.2812
 4054.0000      48.7031      2.7274     19.0312      4.8375      0.1781
 4055.0000      50.0312      2.7245     25.8438      4.7344      0.4500
 4056.0000      51.7344      2.7268     34.0469      4.4656      0.9344
 4057.0000      53.1094      2.7301     37.8281      4.6500      1.6625
 4058.0000      53.8906      2.7243     40.5312      4.7688      2.3781
 4059.0000      56.1406      2.7075     47.7812      4.5219      3.2844
 4060.0000      59.2969      2.7101     53.1875      3.8688      8.9563
 4061.0000      58.1562      2.7164     48.0625      3.7969     10.3500
 4062.0000      55.1562      2.7241     39.8750      4.2125      5.9656
 4063.0000      53.6094      2.7254     33.8125      4.2812      4.1875
 4064.0000      52.8594      2.7251     29.7500      4.1969      3.4781
 4065.0000      51.5000      2.7240     26.5156      4.5000      2.6656
 4066.0000      50.3125      2.7134     22.3906      4.6469      1.8500
 4067.0000      49.7344      2.7221     20.5000      4.6781      1.3563
 4068.0000      49.6094      2.7415     21.2031      4.7219      1.1313
 4069.0000      49.4219      2.7440     20.5469      4.9500      1.1313
 4070.0000      48.9844      2.7386     17.8281      4.9875      1.0375
 4071.0000      48.3750      2.7329     15.9219      4.9344      0.8219
 4072.0000      47.9531      2.7241     14.9375      4.9813      0.5813
 4073.0000      47.7031      2.7236     14.2344      4.6125      0.4938
 4074.0000      47.4062      2.7411     13.5000      4.6813      0.4656
 4075.0000      47.0781      2.7496     13.4844      4.7313      0.2500
 4076.0000      47.1406      2.7370     14.3125      4.5938      0.0938
 4077.0000      48.6719      2.7284     17.1094      4.6312      0.5219
