~VERSION INFORMATION 
VERS.            2.0: LAS LOG ASCII STANDARD VERSION 2.0 
WRAP.             NO: ONE LINE PER DEPTH STEP 
~WELL INFORMATION 
#MNEM.UNIT     DATA                   DESCRIPTION    
#------------------------------------------------
STRT.F      46.0000                    : 
STOP.F    5364.0000                    : 
STEP.F       1.0000                    : 
NULL.       -999.25                    : 
WELL.        J. DONALDSON #1                : WELL NAME       
LONG.        0.0000000                      : LONGITUDE       
LAT.         0.0000000                      : LATITUDE        
SEC.         15                             : SECTION         
STAT.        OH                             : STATE           
TWP.         MILLER                              : TOWNSHIP        
PROJ.        RED #326                       : PROJECT         
DATE.        90/12/17                       : DATE            
OPER.        EDCO DRLG & PROD               : OPERATOR        
ORIG.        KB                             : LOG ORIGIN      
API.         3408323915                     : API             
CMNT1.       API SERIAL # 3-4093-2          : COMMENT 1       
CMNT2.       PERMIT #3915                   : COMMENT 2       
RGE.         1                              : RANGE           
CNTY.        KNOX                           : COUNTY          
LOC.         560'NL & 1056'EL OF SEC 15     : LOCATION DESC   
~TOPS
BIG LIME              1336.00
BASE BIG LIME         2084.00
PACKER SHELL          2170.00
STRAY                 2208.00
TRENTON               3522.00
BLACK RIVER           3678.00
GULL RIVER            4062.00
GLENWOOD              4122.00
TREMPEALEAU           4160.00
LCR                   4364.00
CONASAUGA             4660.00
ROME                  4762.00
MT. SIMON             5132.00
GRANITE               5234.00
~CURVE INFORMATION 
#MNEM.UNIT     API CODE               CURVE DESCRIPTION
#------------------------------------------------------
DEPT.F                                 : 1 DEPTH
DT  .usec/ft                        : 2 SONIC
RHOB.gm/cc                          : 3 DENSITY
GR  .API UNITS                      : 4 GAMMA RAY
PEF .barns/elec                     : 5 PEF
NPHI.%                              : 6 NEUTRON POR
~PARAMETER INFORMATION 
#MNEM.UNIT     VALUE                  DESCRIPTION
#------------------------------------------------
EKB.F        1086.000                 : ELEVATION KB
~A   DEPTH           DT        RHOB          GR         PEF        NPHI
# ...
 4862.0000      44.8438      2.8506     22.3438      2.9500      0.0125
 4863.0000      44.6562      2.8488     20.1719      2.9781     -0.0063
 4864.0000      44.6719      2.8488     22.5312      2.9219     -0.1031
 4865.0000      44.7344      2.8504     24.6875      2.8375     -0.0563
 4866.0000      44.7188      2.8480     23.4688      2.8781     -0.0281
 4867.0000      44.7344      2.8415     22.1094      2.9406     -0.1469
 4868.0000      44.8906      2.8366     24.7969      2.8250     -0.2625
 4869.0000      44.8750      2.8344     25.5781      2.9531     -0.1063
 4870.0000      44.8281      2.8208     23.4062      3.1094      0.1469
 4871.0000      45.1406      2.8185     19.9844      3.1375      0.2781
 4872.0000      45.3438      2.8200     20.3594      3.0812      0.2125
 4873.0000      45.5312      2.8005     19.6719      2.9469      0.4313
 4874.0000      46.2969      2.7623     17.7656      2.8156      0.7812
 4875.0000      46.7969      2.7913     17.9062      2.9125      0.5312
 4876.0000      46.1875      2.8426     19.1406      3.0125      0.4500
 4877.0000      45.6562      2.8409     16.4219      3.0156      0.5531
 4878.0000      45.3906      2.8514     14.2188      3.0969      0.3125
 4879.0000      45.2969      2.8571     13.2656      3.0187      0.0594
 4880.0000      45.1406      2.8585     13.5000      2.8000     -0.0375
 4881.0000      45.1562      2.8529     14.7188      2.9469      0.0188
 4882.0000      45.3281      2.8436     17.2344      3.0688      0.1344
 4883.0000      45.4375      2.8359     18.8906      3.0344      0.2688
 4884.0000      45.4688      2.8354     22.5469      3.0750      0.3781
 4885.0000      45.5312      2.8276     22.5781      3.0781      0.4719
 4886.0000      45.5781      2.8219     20.4375      2.9781      0.4813
 4887.0000      45.3281      2.8513     17.5781      2.9531      0.3063
 4888.0000      44.8281      2.8646     15.3594      3.0375      0.1531
 4889.0000      44.7344      2.8614     15.1094      3.0469      0.0469
 4890.0000      44.7031      2.8454     15.7812      2.9375     -0.0781
 4891.0000      44.8438      2.8255     20.0312      2.9844     -0.2188
 4892.0000      45.1406      2.8118     27.2656      3.1344     -0.2188
 4893.0000      45.2656      2.8118     26.7031      3.3312     -0.0469
 4894.0000      44.7969      2.8285     20.6250      3.1625      0.1250
 4895.0000      44.4844      2.8375     17.8125      2.9781      0.1906
 4896.0000      45.0938      2.8398     19.2969      2.9594      0.2313
 4897.0000      45.7500      2.8415     20.6250      2.9781      0.3719
 4898.0000      45.8438      2.8448     19.4688      3.0281      0.5031
 4899.0000      45.8125      2.8431     16.2656      3.0281      0.6062
 4900.0000      45.7031      2.8435     13.6875      2.9969      0.7094
 4901.0000      45.5625      2.8389     12.1875      3.1250      0.7188
 4902.0000      45.4219      2.8204     14.3750      3.2250      0.5531
 4903.0000      45.1719      2.8084     17.7188      3.1719      0.2531
 4904.0000      45.2656      2.8143     23.0625      3.2594     -0.0312
 4905.0000      45.6250      2.8129     29.2031      3.2938     -0.1688
 4906.0000      46.0156      2.8084     36.9062      3.2344     -0.2219
 4907.0000      46.2656      2.8109     37.9844      3.1063     -0.1187
 4908.0000      46.2656      2.8145     39.6875      3.2406      0.0000
 4909.0000      46.2656      2.8053     37.6719      3.2969     -0.0219
 4910.0000      46.2656      2.8058     27.1719      3.0844     -0.0250
 4911.0000      45.7031      2.8309     22.6406      3.0031     -0.0031
 4912.0000      45.2188      2.8489     23.0469      2.9594     -0.0156
 4913.0000      45.0781      2.8506     23.6406      2.9813     -0.0656
 4914.0000      44.7656      2.8456     23.1875      2.9062     -0.1562
 4915.0000      44.5156      2.8523     23.1562      2.8375     -0.1969
 4916.0000      44.6250      2.8550     29.2812      2.9875     -0.2625
 4917.0000      45.4531      2.8273     47.6562      3.0625     -0.3313
 4918.0000      46.6094      2.7939     52.5938      3.0500     -0.3969
 4919.0000      46.3281      2.7904     44.8438      2.9562     -0.4406
 4920.0000      45.2500      2.8223     31.0625      2.9250     -0.4938
 4921.0000      44.5938      2.8348     26.6406      2.9750     -0.5594
 4922.0000      44.5469      2.8436     23.1406      2.9531     -0.6500
 4923.0000      44.5469      2.8556     20.3438      2.8094     -0.7094
 4924.0000      44.6406      2.8543     20.4219      2.7844     -0.7094
 4925.0000      44.7500      2.8475     23.8281      2.9813     -0.5531
 4926.0000      44.7969      2.8393     24.4375      3.2812     -0.3594
 4927.0000      45.1875      2.8306     26.9375      3.2156     -0.1531
 4928.0000      45.3125      2.8238     27.0938      3.1344     -0.1187
 4929.0000      45.5469      2.8240     28.8438      3.0844     -0.2094
 4930.0000      45.8125      2.8341     37.3438      2.9750     -0.2156
 4931.0000      45.7188      2.8365     36.5156      3.0719     -0.0813
 4932.0000      45.7031      2.8280     31.7188      3.0781      0.0531
 4933.0000      45.9688      2.8121     28.0312      3.0094      0.0688
 4934.0000      46.1562      2.8004     28.9531      2.9375     -0.0344
 4935.0000      46.1719      2.8089     30.3438      2.8469     -0.2062
 4936.0000      46.1094      2.8231     30.6406      2.9094     -0.3187
 4937.0000      46.2188      2.8169     34.7188      2.9313     -0.2938
 4938.0000      46.0938      2.8138     33.3750      2.8688     -0.1313
 4939.0000      46.0469      2.8270     26.5938      2.9250     -0.1344
 4940.0000      46.1094      2.8239     26.4531      2.9781     -0.2156
 4941.0000      46.7031      2.8171     34.7031      2.9938     -0.2438
 4942.0000      47.5312      2.8008     36.8750      2.9031     -0.1750
 4943.0000      47.2031      2.7809     32.9219      2.8156     -0.0281
 4944.0000      46.9531      2.7906     28.5938      2.9562      0.0750
 4945.0000      47.4688      2.8001     28.6562      3.1313      0.0781
 4946.0000      48.3906      2.7676     32.8125      3.0438      0.0000
 4947.0000      48.0625      2.7655     33.1406      3.0625     -0.0938
 4948.0000      46.8125      2.7986     27.9844      3.0063     -0.1500
 4949.0000      46.0938      2.8516     25.3750      2.8344     -0.1781
 4950.0000      46.7344      2.8431     28.4844      2.8500     -0.1437
 4951.0000      47.4375      2.8195     31.7500      2.9094     -0.0813
 4952.0000      47.3594      2.7861     31.9219      2.9875     -0.0719
 4953.0000      46.5312      2.7924     32.0469      3.3094     -0.2156
 4954.0000      45.8438      2.7974     33.0156      3.1844     -0.3031
 4955.0000      46.1719      2.8095     37.5938      2.9031     -0.2281
 4956.0000      47.1875      2.8375     43.9375      2.7844     -0.2000
 4957.0000      48.0781      2.7910     42.4688      2.8281     -0.0188
 4958.0000      47.4844      2.7680     35.1875      2.8281      0.1313
 4959.0000      46.1719      2.8305     27.3281      2.8219      0.2031
 4960.0000      45.7344      2.8526     20.6875      2.8656      0.2906
 4961.0000      45.9844      2.8264     20.4375      3.0906      0.3281
 4962.0000      45.8281      2.8154     21.0000      3.1188      0.2656
 4963.0000      45.3750      2.8321     22.0000      2.9656      0.0500
 4964.0000      45.0000      2.8601     20.2812      2.9281     -0.1250
 4965.0000      44.7812      2.8605     18.6562      2.9188     -0.1375
 4966.0000      44.9062      2.8483     18.9062      2.9188     -0.0625
 4967.0000      45.1406      2.8489     20.8906      2.9438      0.0594
 4968.0000      45.5938      2.8515     24.1094      3.0375      0.1719
 4969.0000      46.1094      2.8363     26.3750      3.1219      0.2406
 4970.0000      46.1562      2.8096     24.9688      3.0344      0.2156
 4971.0000      45.5312      2.8288     25.7344      3.0469      0.1719
 4972.0000      45.0000      2.8369     24.5469      3.1500      0.1063
 4973.0000      44.6406      2.8385     19.5156      3.1063      0.0844
