~VERSION INFORMATION 
VERS.            2.0: LAS LOG ASCII STANDARD VERSION 2.0 
WRAP.             NO: ONE LINE PER DEPTH STEP 
~WELL INFORMATION 
#MNEM.UNIT     DATA                   DESCRIPTION    
#------------------------------------------------
STRT.F      46.0000                    : 
STOP.F    5364.0000                    : 
STEP.F       1.0000                    : 
NULL.       -999.25                    : 
WELL.        J. DONALDSON #1                : WELL NAME       
LONG.        0.0000000                      : LONGITUDE       
LAT.         0.0000000                      : LATITUDE        
SEC.         15                             : SECTION         
STAT.        OH                             : STATE           
TWP.         MILLER                              : TOWNSHIP        
PROJ.        RED #326                       : PROJECT         
DATE.        90/12/17                       : DATE            
OPER.        EDCO DRLG & PROD               : OPERATOR        
ORIG.        KB                             : LOG ORIGIN      
API.         3408323915                     : API             
CMNT1.       API SERIAL # 3-4093-2          : COMMENT 1       
CMNT2.       PERMIT #3915                   : COMMENT 2       
RGE.         1                              : RANGE           
CNTY.        KNOX                           : COUNTY          
LOC.         560'NL & 1056'EL OF SEC 15     : LOCATION DESC   
~TOPS
BIG LIME              1336.00
BASE BIG LIME         2084.00
PACKER SHELL          2170.00
STRAY                 2208.00
TRENTON               3522.00
BLACK RIVER           3678.00
GULL RIVER            4062.00
GLENWOOD              4122.00
TREMPEALEAU           4160.00
LCR                   4364.00
CONASAUGA             4660.00
ROME                  4762.00
MT. SIMON             5132.00
GRANITE               5234.00
~CURVE INFORMATION 
#MNEM.UNIT     API CODE               CURVE DESCRIPTION
#------------------------------------------------------
DEPT.F                                 : 1 DEPTH
DT  .usec/ft                        : 2 SONIC
RHOB.gm/cc                          : 3 DENSITY
GR  .API UNITS                      : 4 GAMMA RAY
PEF .barns/elec                     : 5 PEF
NPHI.%                              : 6 NEUTRON POR
~PARAMETER INFORMATION 
#MNEM.UNIT     VALUE                  DESCRIPTION
#------------------------------------------------
EKB.F        1086.000                 : ELEVATION KB
~A   DEPTH           DT        RHOB          GR         PEF        NPHI
# ...
 4302.0000      46.7812      2.8159     15.4531      2.8094      1.2406
 4303.0000      46.9531      2.8280     15.9219      2.8125      1.1250
 4304.0000      46.7500      2.8334     16.7500      2.8375      1.1625
 4305.0000      46.7031      2.8280     19.0938      2.9031      1.3344
 4306.0000      47.3438      2.8199     21.8125      2.9438      1.3844
 4307.0000      47.8125      2.8124     19.2969      2.8625      1.2812
 4308.0000      47.6250      2.8178     18.0312      2.7875      1.2031
 4309.0000      47.4375      2.8350     17.7500      2.7719      1.1938
 4310.0000      47.3438      2.8491     16.1562      2.7781      1.2531
 4311.0000      47.1562      2.8461     14.5938      2.8125      1.2969
 4312.0000      46.7500      2.8353     14.2344      2.8594      1.2906
 4313.0000      46.4062      2.8318     13.7188      2.9375      1.2406
 4314.0000      46.1875      2.8234     13.1562      3.0344      1.0750
 4315.0000      46.0625      2.8181     15.8906      3.1156      0.6406
 4316.0000      45.9844      2.8098     37.2500      3.2062      0.4469
 4317.0000      46.7188      2.7743     51.0156      3.2438      0.6656
 4318.0000      48.1250      2.7585     48.4062      3.1375      0.8406
 4319.0000      48.3906      2.7853     37.2500      3.0844      0.4625
 4320.0000      47.6562      2.8098     26.6250      2.8750      0.2625
 4321.0000      46.7969      2.8206     24.2656      2.7281      0.2188
 4322.0000      46.3438      2.8209     23.3438      2.9031      0.1906
 4323.0000      46.2969      2.8113     28.5000      2.9531     -0.0312
 4324.0000      46.8594      2.7914     50.9531      2.8844      0.0531
 4325.0000      47.8906      2.7640     81.9688      2.9156      0.5219
 4326.0000      49.8281      2.7459     82.7344      2.9000      1.0406
 4327.0000      51.2500      2.7528     70.7656      2.6688      1.4281
 4328.0000      51.1562      2.7018     66.8594      2.8156      1.7906
 4329.0000      52.1250      2.6981     65.7969      3.0500      1.9875
 4330.0000      52.4531      2.7013     63.9219      3.0125      2.1219
 4331.0000      52.2344      2.6840     66.9844      2.9281      2.4313
 4332.0000      53.0938      2.6385     75.4531      2.8750      2.9969
 4333.0000      54.7188      2.6233     81.4531      2.8813      2.8156
 4334.0000      54.9531      2.6454     58.4844      2.8312      1.6969
 4335.0000      52.6875      2.7513     31.9688      2.8625      0.9875
 4336.0000      47.8281      2.8268     17.5000      2.9938      0.6406
 4337.0000      46.0000      2.8204     20.4062      3.1750      0.7219
 4338.0000      45.7500      2.8096     23.6094      3.0406      0.9000
 4339.0000      46.4844      2.8053     27.7969      2.9031      1.2656
 4340.0000      47.4062      2.7919     39.9375      2.8531      1.7750
 4341.0000      48.4375      2.7651     52.2188      2.8250      1.9594
 4342.0000      50.0781      2.7184     57.7500      2.7687      2.1500
 4343.0000      51.4531      2.6938     63.4062      2.6656      2.5875
 4344.0000      52.4688      2.6508     78.4062      2.5594      3.4500
 4345.0000      53.8594      2.5798     88.2188      2.5656      4.5375
 4346.0000      56.9375      2.5491     92.6562      2.7219      4.3625
 4347.0000      57.7500      2.5790     85.5469      2.8063      3.6781
 4348.0000      55.9219      2.5895     76.3594      2.7250      4.4406
 4349.0000      56.4688      2.5774     78.7656      2.6781      4.2719
 4350.0000      57.1406      2.5915     80.8906      2.6281      3.7438
 4351.0000      56.8438      2.6110     80.2500      2.5594      3.6219
 4352.0000      56.2500      2.6526     64.4375      2.6094      2.9906
 4353.0000      51.2188      2.7831     40.4375      2.9781      2.0219
 4354.0000      48.7812      2.7980     43.0156      2.9719      6.5875
 4355.0000      52.3438      2.5246     86.7969      2.7375      7.3938
 4356.0000      61.8750      2.4761     99.4375      2.7563      5.3875
 4357.0000      61.3906      2.5594     91.3281      2.8219      4.0469
 4358.0000      57.3594      2.5788     88.5156      2.8813      3.6375
 4359.0000      58.7188      2.5611    103.6562      2.9438      4.1625
 4360.0000      61.0781      2.5328    127.5000      2.8469      4.2531
 4361.0000      60.3125      2.6049    121.1250      2.7687      3.8281
 4362.0000      57.4219      2.6178     93.8906      2.7969      3.3312
 4363.0000      56.2500      2.6268     91.1250      2.7969      3.2250
 4364.0000      54.7656      2.6719     67.1094      2.7062      2.4062
 4365.0000      51.8281      2.7309     51.6562      2.7844      1.8313
 4366.0000      50.0156      2.7641     41.8281      2.8844      1.8156
 4367.0000      48.9375      2.7434     48.0000      2.8781      2.0438
 4368.0000      49.3750      2.7219     60.0156      2.8219      2.2719
 4369.0000      51.0469      2.7034     71.0312      2.7594      1.8250
 4370.0000      50.8594      2.7638     54.6562      2.7563      1.0188
 4371.0000      48.7656      2.8116     38.9219      2.7750      0.7281
 4372.0000      47.2188      2.7978     48.8438      2.8063      1.3219
 4373.0000      48.3750      2.7738     51.3438      2.8250      1.4594
 4374.0000      47.8594      2.8068     28.5469      2.7438      1.0625
 4375.0000      46.7500      2.8280     22.1094      2.8344      0.8781
 4376.0000      46.1875      2.8331     25.7031      3.0406      1.0406
 4377.0000      46.7656      2.8124     42.6875      2.8094      1.5875
 4378.0000      48.6719      2.7611     65.0312      2.6969      1.3687
 4379.0000      49.9062      2.7896     52.7344      2.8469      0.8188
 4380.0000      47.9062      2.8148     31.4375      3.1281      0.3438
 4381.0000      45.6719      2.8218     25.0625      3.0875      0.0938
 4382.0000      45.1094      2.8266     24.7812      3.1531      0.2250
 4383.0000      45.3125      2.8248     29.5938      3.1219      0.8188
 4384.0000      46.0781      2.8040     38.1875      2.9688      1.5312
 4385.0000      47.5000      2.7638     43.3281      2.8937      1.6500
 4386.0000      48.8594      2.7600     39.3281      2.9594      1.6125
 4387.0000      48.5156      2.7846     33.2969      2.9281      1.8375
 4388.0000      47.6719      2.7814     33.1562      2.9438      2.2656
 4389.0000      47.6094      2.7901     32.6094      2.9406      2.5375
 4390.0000      47.4531      2.7970     26.4375      2.8781      2.3813
 4391.0000      46.8125      2.8155     14.2031      2.8969      1.8594
 4392.0000      46.2969      2.8291     10.8750      3.0281      1.6000
 4393.0000      46.2969      2.8190     11.5000      3.0344      2.0156
 4394.0000      46.5938      2.8051     11.6875      2.9500      2.4906
 4395.0000      47.0312      2.7920     10.5938      2.8844      2.7062
 4396.0000      47.2500      2.7579     10.0781      2.9500      3.0156
 4397.0000      47.1250      2.7493     12.1094      3.0594      2.9469
 4398.0000      46.7031      2.7873     13.5000      3.0844      2.0469
 4399.0000      46.3750      2.8161     13.5938      3.1344      1.4406
 4400.0000      46.2656      2.8363     13.5938      3.2406      1.0656
 4401.0000      46.3438      2.8451     14.7812      3.2031      0.8500
 4402.0000      46.3438      2.8401     16.7812      3.0344      0.7344
 4403.0000      46.1875      2.8440     18.3594      2.9375      0.6313
 4404.0000      46.1406      2.8495     19.8125      3.0250      0.5406
 4405.0000      46.1406      2.8419     22.1562      2.9781      0.4906
 4406.0000      45.8594      2.8406     24.5312      2.8844      0.4969
 4407.0000      45.9844      2.8426     24.7969      2.8438      0.5500
 4408.0000      46.1719      2.8488     23.9375      2.8312      0.5437
 4409.0000      46.0469      2.8565     21.7500      2.8531      0.4688
 4410.0000      45.7969      2.8571     20.0625      2.9469      0.3906
 4411.0000      45.6250      2.8476     18.7031      2.9750      0.4188
 4412.0000      45.4688      2.8383     17.4375      2.9062      0.5906
 4413.0000      45.3594      2.8416     16.5312      2.8500      0.7656
