~VERSION INFORMATION 
VERS.            2.0: LAS LOG ASCII STANDARD VERSION 2.0 
WRAP.             NO: ONE LINE PER DEPTH STEP 
~WELL INFORMATION 
#MNEM.UNIT     DATA                   DESCRIPTION    
#------------------------------------------------
STRT.F      46.0000                    : 
STOP.F    5364.0000                    : 
STEP.F       1.0000                    : 
NULL.       -999.25                    : 
WELL.        J. DONALDSON #1                : WELL NAME       
LONG.        0.0000000                      : LONGITUDE       
LAT.         0.0000000                      : LATITUDE        
SEC.         15                             : SECTION         
STAT.        OH                             : STATE           
TWP.         MILLER                              : TOWNSHIP        
PROJ.        RED #326                       : PROJECT         
DATE.        90/12/17                       : DATE            
OPER.        EDCO DRLG & PROD               : OPERATOR        
ORIG.        KB                             : LOG ORIGIN      
API.         3408323915                     : API             
CMNT1.       API SERIAL # 3-4093-2          : COMMENT 1       
CMNT2.       PERMIT #3915                   : COMMENT 2       
RGE.         1                              : RANGE           
CNTY.        KNOX                           : COUNTY          
LOC.         560'NL & 1056'EL OF SEC 15     : LOCATION DESC   
~TOPS
BIG LIME              1336.00
BASE BIG LIME         2084.00
PACKER SHELL          2170.00
STRAY                 2208.00
TRENTON               3522.00
BLACK RIVER           3678.00
GULL RIVER            4062.00
GLENWOOD              4122.00
TREMPEALEAU           4160.00
LCR                   4364.00
CONASAUGA             4660.00
ROME                  4762.00
MT. SIMON             5132.00
GRANITE               5234.00
~CURVE INFORMATION 
#MNEM.UNIT     API CODE               CURVE DESCRIPTION
#------------------------------------------------------
DEPT.F                                 : 1 DEPTH
DT  .usec/ft                        : 2 SONIC
RHOB.gm/cc                          : 3 DENSITY
GR  .API UNITS                      : 4 GAMMA RAY
PEF .barns/elec                     : 5 PEF
NPHI.%                              : 6 NEUTRON POR
~PARAMETER INFORMATION 
#MNEM.UNIT     VALUE                  DESCRIPTION
#------------------------------------------------
EKB.F        1086.000                 : ELEVATION KB
~A   DEPTH           DT        RHOB          GR         PEF        NPHI
# ...
  606.0000    -999.2500   -999.2500     86.3125   -999.2500   -999.2500
  607.0000    -999.2500   -999.2500     87.4375   -999.2500   -999.2500
  608.0000    -999.2500   -999.2500     84.5938   -999.2500   -999.2500
  609.0000    -999.2500   -999.2500     83.7812   -999.2500   -999.2500
  610.0000    -999.2500   -999.2500     88.8281   -999.2500   -999.2500
  611.0000    -999.2500   -999.2500     93.6562   -999.2500   -999.2500
  612.0000    -999.2500   -999.2500     96.7969   -999.2500   -999.2500
  613.0000    -999.2500   -999.2500     98.3125   -999.2500   -999.2500
  614.0000    -999.2500   -999.2500     95.0781   -999.2500   -999.2500
  615.0000    -999.2500   -999.2500     91.5000   -999.2500   -999.2500
  616.0000    -999.2500   -999.2500     89.2969   -999.2500   -999.2500
  617.0000    -999.2500   -999.2500     86.3750   -999.2500   -999.2500
  618.0000    -999.2500   -999.2500     84.8750   -999.2500   -999.2500
  619.0000    -999.2500   -999.2500     86.5938   -999.2500   -999.2500
  620.0000    -999.2500   -999.2500     89.4219   -999.2500   -999.2500
  621.0000    -999.2500   -999.2500     92.8906   -999.2500   -999.2500
  622.0000    -999.2500   -999.2500     94.9531   -999.2500   -999.2500
  623.0000    -999.2500   -999.2500     94.2344   -999.2500   -999.2500
  624.0000    -999.2500   -999.2500     93.2031   -999.2500   -999.2500
  625.0000    -999.2500   -999.2500     92.7812   -999.2500   -999.2500
  626.0000    -999.2500   -999.2500     91.1875   -999.2500   -999.2500
  627.0000    -999.2500   -999.2500     88.8594   -999.2500   -999.2500
  628.0000    -999.2500   -999.2500     87.3438   -999.2500   -999.2500
  629.0000    -999.2500   -999.2500     85.7031   -999.2500   -999.2500
  630.0000    -999.2500   -999.2500     87.2812   -999.2500   -999.2500
  631.0000    -999.2500   -999.2500     88.9062   -999.2500   -999.2500
  632.0000    -999.2500   -999.2500     85.5312   -999.2500   -999.2500
  633.0000    -999.2500   -999.2500     84.3125   -999.2500   -999.2500
  634.0000    -999.2500   -999.2500     86.4219   -999.2500   -999.2500
  635.0000     126.3281   -999.2500     86.9062   -999.2500   -999.2500
  636.0000     123.1875   -999.2500     86.3906   -999.2500   -999.2500
  637.0000     117.9531   -999.2500     78.3594   -999.2500   -999.2500
  638.0000     108.5938   -999.2500     77.5469   -999.2500   -999.2500
  639.0000     107.8438   -999.2500     77.1094   -999.2500   -999.2500
  640.0000      86.0938   -999.2500     76.9688   -999.2500   -999.2500
  641.0000      70.5312   -999.2500     77.7031   -999.2500   -999.2500
  642.0000      69.5469   -999.2500     78.1094   -999.2500   -999.2500
  643.0000      69.3906   -999.2500     76.9062   -999.2500   -999.2500
  644.0000      57.7656   -999.2500     75.6562   -999.2500   -999.2500
  645.0000      55.7969   -999.2500     75.9375   -999.2500   -999.2500
  646.0000      55.5469   -999.2500     77.5156   -999.2500   -999.2500
  647.0000      55.3906   -999.2500     81.4219   -999.2500   -999.2500
  648.0000      67.6406   -999.2500     83.6875   -999.2500   -999.2500
  649.0000      78.9844   -999.2500     83.4688   -999.2500   -999.2500
  650.0000      73.8594   -999.2500     83.0469   -999.2500   -999.2500
  651.0000      72.9219   -999.2500     80.5938   -999.2500   -999.2500
  652.0000      89.0000      2.6608     83.2188      2.9031   -999.2500
  653.0000     115.4375      2.6643     95.4062      2.7313   -999.2500
  654.0000     102.7656      2.8176    102.4531      2.8656   -999.2500
  655.0000      89.6250      2.7445    103.4688      3.1625   -999.2500
  656.0000      89.1250      2.7178    101.3594      3.3125   -999.2500
  657.0000      89.5156      2.7061     99.7500      3.1156     29.7625
  658.0000      89.6875      2.6996     98.9062      2.9500     29.3156
  659.0000      89.6875      2.7096     98.7500      2.9688     27.8188
  660.0000      89.7969      2.7028     98.4062      3.2125     29.5000
  661.0000      89.8906      2.6799     99.6094      3.4094     30.9937
  662.0000      89.5156      2.6704     99.6719      3.3281     32.0000
  663.0000      89.9844      2.6580     99.0938      3.0438     32.3250
  664.0000      91.8906      2.6630    100.7812      3.0344     32.5531
  665.0000      93.1875      2.6764    101.1250      3.2750     32.9656
  666.0000      92.0781      2.6794    101.7188      3.4188     32.6844
  667.0000      91.6250      2.6791    103.1094      3.4656     31.7281
  668.0000      92.0625      2.6803    104.9531      3.4125     31.0344
  669.0000      93.2344      2.6739    107.4219      3.2687     31.4844
  670.0000      94.4844      2.6584    108.5938      3.1531     31.3719
  671.0000      96.4375      2.6508    107.2188      3.2281     30.6406
  672.0000      96.4531      2.6498    105.0469      3.3750     30.0500
  673.0000      95.2500      2.6468    105.4688      3.1469     29.9688
  674.0000      94.4844      2.6420    106.7812      3.0156     30.6313
  675.0000      93.4375      2.6559    105.4531      3.3906     30.2313
  676.0000      89.7812      2.6838    105.8281      3.2438     27.8469
  677.0000      85.7031      2.6588    109.9375      3.1063     24.2406
  678.0000      85.7500      2.5585    117.4219      3.1719     29.1219
  679.0000      93.2188      2.4968    119.7031      3.0031     35.1969
  680.0000      98.9688      2.4478    126.7500      2.9531     36.3563
  681.0000     100.2188      2.4275    162.1719      3.0750     36.9813
  682.0000     101.5625      2.3953    232.5156      3.1594     42.1281
  683.0000     105.3438      2.3078    273.8750      3.2938     45.3219
  684.0000     109.2188      2.2979    282.0938      3.4156     42.6219
  685.0000     109.9531      2.3084    294.5469      3.2750     43.0344
  686.0000     110.3438      2.2838    296.8125      3.2031     42.1406
  687.0000     110.0781      2.2808    288.7500      3.1531     40.4438
  688.0000     109.0781      2.2795    286.1562      3.2062     42.6719
  689.0000     108.8594      2.2705    279.2344      3.3781     43.2563
  690.0000     109.0469      2.2720    257.2500      3.3219     42.5125
  691.0000     108.5781      2.2843    209.2812      3.1875     40.2938
  692.0000     106.3906      2.4088    192.3125      3.1500     39.7281
  693.0000     103.7969      2.4070    194.4219      3.0438     39.1344
  694.0000     105.8438      2.3940    225.7656      2.9250     38.8875
  695.0000     108.9844      2.3664    301.1406      2.9594     42.6875
  696.0000     110.2656      2.2900    328.4062      3.1688     44.0812
  697.0000     109.8594      2.2726    329.4688      3.3000     44.8688
  698.0000     109.0938      2.2859    327.2812      3.1938     44.1125
  699.0000     108.3906      2.3131    314.3438      3.2781     41.3031
  700.0000     107.5469      2.3489    272.0469      3.4969     39.4500
  701.0000     106.3125      2.3470    228.8906      3.4125     38.2250
  702.0000     103.6562      2.3588    201.5000      3.1500     34.1500
  703.0000     100.8750      2.4143    192.0781      3.0250     32.3438
  704.0000      98.7344      2.4375    211.0469      2.9656     33.2750
  705.0000      98.4219      2.4175    228.9062      2.9219     33.4062
  706.0000      98.9062      2.4033    242.9688      2.8312     34.0719
  707.0000      98.9688      2.3955    237.1094      2.8188     36.1906
  708.0000      98.5000      2.4118    207.5312      2.9250     37.4375
  709.0000      97.6875      2.4985    198.8125      3.1188     34.4938
  710.0000      97.0156      2.5329    195.1094      3.1406     33.9344
  711.0000      96.1875      2.5414    187.2031      3.1344     34.2062
  712.0000      95.3125      2.5509    173.1562      3.2875     33.4781
  713.0000      94.9375      2.5645    159.9688      3.2500     32.7313
  714.0000      94.9844      2.5800    155.7188      3.3094     31.8844
  715.0000      95.1562      2.5944    161.3281      3.5656     30.3656
  716.0000      95.2812      2.5881    156.3906      3.4156     32.2031
  717.0000      95.0312      2.5953    145.8906      3.4188     32.3719
