~VERSION INFORMATION 
VERS.            2.0: LAS LOG ASCII STANDARD VERSION 2.0 
WRAP.             NO: ONE LINE PER DEPTH STEP 
~WELL INFORMATION 
#MNEM.UNIT     DATA                   DESCRIPTION    
#------------------------------------------------
STRT.F      46.0000                    : 
STOP.F    5364.0000                    : 
STEP.F       1.0000                    : 
NULL.       -999.25                    : 
WELL.        J. DONALDSON #1                : WELL NAME       
LONG.        0.0000000                      : LONGITUDE       
LAT.         0.0000000                      : LATITUDE        
SEC.         15                             : SECTION         
STAT.        OH                             : STATE           
TWP.         MILLER                              : TOWNSHIP        
PROJ.        RED #326                       : PROJECT         
DATE.        90/12/17                       : DATE            
OPER.        EDCO DRLG & PROD               : OPERATOR        
ORIG.        KB                             : LOG ORIGIN      
API.         3408323915                     : API             
CMNT1.       API SERIAL # 3-4093-2          : COMMENT 1       
CMNT2.       PERMIT #3915                   : COMMENT 2       
RGE.         1                              : RANGE           
CNTY.        KNOX                           : COUNTY          
LOC.         560'NL & 1056'EL OF SEC 15     : LOCATION DESC   
~TOPS
BIG LIME              1336.00
BASE BIG LIME         2084.00
PACKER SHELL          2170.00
STRAY                 2208.00
TRENTON               3522.00
BLACK RIVER           3678.00
GULL RIVER            4062.00
GLENWOOD              4122.00
TREMPEALEAU           4160.00
LCR                   4364.00
CONASAUGA             4660.00
ROME                  4762.00
MT. SIMON             5132.00
GRANITE               5234.00
~CURVE INFORMATION 
#MNEM.UNIT     API CODE               CURVE DESCRIPTION
#------------------------------------------------------
DEPT.F                                 : 1 DEPTH
DT  .usec/ft                        : 2 SONIC
RHOB.gm/cc                          : 3 DENSITY
GR  .API UNITS                      : 4 GAMMA RAY
PEF .barns/elec                     : 5 PEF
NPHI.%                              : 6 NEUTRON POR
~PARAMETER INFORMATION 
#MNEM.UNIT     VALUE                  DESCRIPTION
#------------------------------------------------
EKB.F        1086.000                 : ELEVATION KB
~A   DEPTH           DT        RHOB          GR         PEF        NPHI
# ...
 3406.0000      64.5469      2.6726     62.8438      4.0156     16.5438
 3407.0000      63.1406      2.6825     50.9688      4.0281     15.8438
 3408.0000      61.7969      2.6761     50.2969      3.8500     17.2844
 3409.0000      62.4375      2.6804     54.6094      4.0531     16.5562
 3410.0000      63.9375      2.6846     61.1406      4.2781     12.1938
 3411.0000      66.4531      2.6869     66.7500      4.3281     10.4531
 3412.0000      68.5781      2.6941     70.1406      4.3063     10.8594
 3413.0000      66.6406      2.7016     62.5000      4.2156     12.8000
 3414.0000      62.3438      2.7038     56.6406      3.9906     14.0375
 3415.0000      62.9062      2.6924     57.5469      3.9000     17.1594
 3416.0000      65.3438      2.6803     59.8750      4.0375     15.4563
 3417.0000      67.7812      2.6893     63.0156      4.0344     10.5781
 3418.0000      69.3281      2.6913     67.7344      3.9125     12.1750
 3419.0000      69.4844      2.6686     66.7812      3.9875     14.4219
 3420.0000      70.5000      2.6569     66.3438      4.1312     13.6531
 3421.0000      71.8750      2.6479     67.8906      4.5312     16.7688
 3422.0000      71.6250      2.6396     69.3281      4.7125     17.1344
 3423.0000      69.0312      2.6374     66.5781      4.0156     17.3219
 3424.0000      66.4531      2.6364     60.9531      3.6688     19.2688
 3425.0000      65.0938      2.6340     56.0938      3.7219     18.3438
 3426.0000      64.2500      2.6383     50.1250      3.8563     15.3313
 3427.0000      63.2031      2.6540     44.2500      4.1156     14.0688
 3428.0000      63.0469      2.6693     41.5781      4.3563     13.5125
 3429.0000      65.1406      2.6749     44.3906      4.5344     11.8969
 3430.0000      66.1562      2.6640     48.2188      4.5531     11.1531
 3431.0000      67.4375      2.6626     53.5625      4.5000     10.2094
 3432.0000      70.2031      2.6479     63.5625      4.5344     11.3844
 3433.0000      70.4219      2.6303     65.3281      4.5031     13.1750
 3434.0000      69.1562      2.6366     62.0000      4.3000     13.8688
 3435.0000      68.1562      2.6308     58.8281      3.9156     17.5594
 3436.0000      66.7969      2.6221     55.7031      3.9406     18.9469
 3437.0000      66.5781      2.6323     54.3438      4.3031     17.4750
 3438.0000      66.3594      2.6440     51.2656      4.3344     15.7312
 3439.0000      64.5938      2.6445     45.1875      4.3313     15.0125
 3440.0000      64.3594      2.6388     43.3906      4.3875     13.3562
 3441.0000      65.2344      2.6306     45.7656      4.4813     15.2312
 3442.0000      66.1562      2.6359     49.9375      4.8250     13.1219
 3443.0000      67.9531      2.6413     54.3125      4.6969     10.6375
 3444.0000      70.0156      2.6361     56.0938      4.4000     11.5750
 3445.0000      71.1250      2.6246     59.2344      4.3688     13.0656
 3446.0000      71.4688      2.6071     63.1250      4.3125     14.2031
 3447.0000      70.8906      2.5980     59.4531      4.0625     15.2281
 3448.0000      70.4219      2.6008     59.3281      3.8219     16.1500
 3449.0000      69.4219      2.6064     53.0000      3.7781     17.2094
 3450.0000      65.3594      2.6065     41.3594      3.8375     17.3031
 3451.0000      59.9375      2.6004     33.6875      4.1781     16.9625
 3452.0000      59.1094      2.5921     31.4531      4.4375     15.7844
 3453.0000      63.1719      2.6104     37.7656      4.5594      7.2469
 3454.0000      66.5781      2.6440     43.1406      4.4875      6.5062
 3455.0000      63.8281      2.6791     40.7969      4.5188      9.1656
 3456.0000      63.8750      2.6253     40.7031      4.0312     12.9344
 3457.0000      68.6250      2.6063     45.9688      4.0719     14.2875
 3458.0000      70.4844      2.6263     47.5000      4.5094      9.7625
 3459.0000      70.3750      2.6078     46.1562      4.2906     11.9812
 3460.0000      68.2500      2.5745     42.9062      4.0438     15.7688
 3461.0000      65.2031      2.5614     36.4062      3.8063     16.1375
 3462.0000      63.7812      2.5678     36.6719      3.8844     14.9000
 3463.0000      64.2500      2.5769     43.4531      4.1281     11.1625
 3464.0000      64.2344      2.5901     41.8594      4.2844      9.6156
 3465.0000      64.1250      2.6233     39.6094      4.5625     11.6938
 3466.0000      64.1875      2.6206     38.7969      4.8094     12.1094
 3467.0000      63.4688      2.6255     38.3281      4.7938     11.9438
 3468.0000      63.6094      2.6284     39.8438      4.6656     13.3500
 3469.0000      64.9375      2.6234     41.3906      4.8656     12.1938
 3470.0000      64.8594      2.6259     40.8594      4.7750     11.7344
 3471.0000      63.0469      2.6311     39.6562      4.6063     13.0656
 3472.0000      63.1875      2.6276     39.2344      4.7219     13.4156
 3473.0000      64.5000      2.6283     40.9688      4.7688     10.8469
 3474.0000      64.8594      2.6355     44.1562      4.6188      9.8156
 3475.0000      65.6875      2.6400     49.9531      4.3344     11.5875
 3476.0000      66.1406      2.6405     52.6719      4.1156     12.4375
 3477.0000      64.9531      2.6424     47.8281      4.0125     13.3688
 3478.0000      63.8125      2.6446     45.5156      4.1031     15.8469
 3479.0000      64.3750      2.6504     44.5469      4.1719     14.8094
 3480.0000      65.5938      2.6569     43.2500      4.2156     12.6906
 3481.0000      65.4375      2.6471     42.9688      4.3313     12.7906
 3482.0000      63.5781      2.6329     43.8594      4.3250     13.9281
 3483.0000      63.9062      2.6248     43.8594      4.2313     14.2219
 3484.0000      64.9531      2.6420     44.3438      4.3031     13.0844
 3485.0000      63.8594      2.6603     43.8750      4.4250     13.0500
 3486.0000      64.4219      2.6616     46.8281      4.3812     13.5188
 3487.0000      66.1562      2.6534     51.2656      4.4969     11.7094
 3488.0000      66.0312      2.6524     52.4531      4.6469     11.6687
 3489.0000      66.5625      2.6473     54.1719      4.3844     15.1000
 3490.0000      67.8438      2.6434     56.0625      4.2562     14.2000
 3491.0000      67.6875      2.6440     55.7656      4.2063     14.2312
 3492.0000      68.3125      2.6383     55.3438      4.1625     16.5312
 3493.0000      69.9375      2.6345     59.3750      4.2313     15.9969
 3494.0000      70.9531      2.6361     62.2656      4.3313     16.1250
 3495.0000      70.9844      2.6321     59.9844      4.1937     17.2719
 3496.0000      71.0156      2.6289     58.7969      4.2063     18.6938
 3497.0000      71.8125      2.6324     58.5312      4.3625     18.2844
 3498.0000      72.4688      2.6263     58.5312      4.2500     18.5500
 3499.0000      72.1250      2.6070     55.3906      4.2469     19.4594
 3500.0000      70.3750      2.5955     50.9375      4.5250     19.2656
 3501.0000      71.0469      2.5860     54.0156      4.4313     18.7750
 3502.0000      72.6406      2.5938     58.4375      4.2000     17.7250
 3503.0000      72.7500      2.5990     57.9844      4.4188     17.7437
 3504.0000      67.2812      2.5990     49.0000      4.1750     19.2750
 3505.0000      62.6562      2.6013     40.4531      4.0594     21.4531
 3506.0000      65.9531      2.6141     40.4844      4.2156     14.7438
 3507.0000      67.9531      2.6465     44.9062      4.5625     10.7844
 3508.0000      67.5625      2.6548     47.9062      4.9250     11.5000
 3509.0000      65.2344      2.6074     48.2344      4.5969     15.6875
 3510.0000      61.6562      2.6020     40.5938      4.3688     16.5000
 3511.0000      64.0781      2.6236     38.3281      4.3969     13.5656
 3512.0000      64.9062      2.6448     45.6406      4.9188     10.2000
 3513.0000      62.5625      2.6531     42.2500      4.9906     11.3031
 3514.0000      59.0469      2.6514     33.6406      4.6406     12.8063
 3515.0000      59.3750      2.6563     31.6719      4.8656      9.1188
 3516.0000      61.6094      2.6686     33.9219      4.9688      7.7688
 3517.0000      59.8594      2.6761     33.8438      4.7469      9.3000
