~VERSION INFORMATION 
VERS.            2.0: LAS LOG ASCII STANDARD VERSION 2.0 
WRAP.             NO: ONE LINE PER DEPTH STEP 
~WELL INFORMATION 
#MNEM.UNIT     DATA                   DESCRIPTION    
#------------------------------------------------
STRT.F      46.0000                    : 
STOP.F    5364.0000                    : 
STEP.F       1.0000                    : 
NULL.       -999.25                    : 
WELL.        J. DONALDSON #1                : WELL NAME       
LONG.        0.0000000                      : LONGITUDE       
LAT.         0.0000000                      : LATITUDE        
SEC.         15                             : SECTION         
STAT.        OH                             : STATE           
TWP.         MILLER                              : TOWNSHIP        
PROJ.        RED #326                       : PROJECT         
DATE.        90/12/17                       : DATE            
OPER.        EDCO DRLG & PROD               : OPERATOR        
ORIG.        KB                             : LOG ORIGIN      
API.         3408323915                     : API             
CMNT1.       API SERIAL # 3-4093-2          : COMMENT 1       
CMNT2.       PERMIT #3915                   : COMMENT 2       
RGE.         1                              : RANGE           
CNTY.        KNOX                           : COUNTY          
LOC.         560'NL & 1056'EL OF SEC 15     : LOCATION DESC   
~TOPS
BIG LIME              1336.00
BASE BIG LIME         2084.00
PACKER SHELL          2170.00
STRAY                 2208.00
TRENTON               3522.00
BLACK RIVER           3678.00
GULL RIVER            4062.00
GLENWOOD              4122.00
TREMPEALEAU           4160.00
LCR                   4364.00
CONASAUGA             4660.00
ROME                  4762.00
MT. SIMON             5132.00
GRANITE               5234.00
~CURVE INFORMATION 
#MNEM.UNIT     API CODE               CURVE DESCRIPTION
#------------------------------------------------------
DEPT.F                                 : 1 DEPTH
DT  .usec/ft                        : 2 SONIC
RHOB.gm/cc                          : 3 DENSITY
GR  .API UNITS                      : 4 GAMMA RAY
PEF .barns/elec                     : 5 PEF
NPHI.%                              : 6 NEUTRON POR
~PARAMETER INFORMATION 
#MNEM.UNIT     VALUE                  DESCRIPTION
#------------------------------------------------
EKB.F        1086.000                 : ELEVATION KB
~A   DEPTH           DT        RHOB          GR         PEF        NPHI
# ...
 5198.0000      65.0469      2.5295     49.9375      1.8031      7.4781
 5199.0000      67.8594      2.5059    110.2344      2.0906     10.2594
 5200.0000      64.1875      2.4620    140.5781      2.7156     13.4844
 5201.0000      60.2812      2.4480    126.2188      3.0688     14.3688
 5202.0000      61.3438      2.5120    102.5781      2.9562     12.0938
 5203.0000      62.6562      2.5299     90.3281      2.7687     12.5656
 5204.0000      63.2969      2.5105     73.3438      2.6281     14.3156
 5205.0000      64.2812      2.5131     60.2812      2.3281     14.7500
 5206.0000      65.3594      2.4961     61.9375      2.0688     11.9156
 5207.0000      65.4688      2.4894     82.3906      2.2938     13.3594
 5208.0000      64.3594      2.4931     91.1094      2.5031     15.3688
 5209.0000      63.8438      2.5183     87.8594      2.5656     16.2625
 5210.0000      64.0781      2.5140     77.2656      2.5938     16.9937
 5211.0000      65.4844      2.5045     52.0000      2.3281     17.4906
 5212.0000      67.8125      2.4794     40.7812      2.0000     15.3063
 5213.0000      70.0156      2.4241     40.8125      1.8094     15.3438
 5214.0000      71.9219      2.3855     41.5938      1.7938     17.1844
 5215.0000      71.8750      2.3670     40.4062      1.8188     17.6250
 5216.0000      72.2344      2.3658     36.1719      1.7969     17.5000
 5217.0000      72.6875      2.3593     33.0781      1.8188     17.6344
 5218.0000      73.0469      2.3559     34.2031      1.8000     17.4937
 5219.0000      73.4375      2.3575     33.8281      1.8313     17.8563
 5220.0000      72.4531      2.3590     34.9688      1.8188     17.6438
 5221.0000      69.8125      2.3723     47.2656      1.7781     14.8969
 5222.0000      68.7812      2.3995     70.3594      1.9156     13.7031
 5223.0000      69.0312      2.4089     86.6094      2.1594     14.9219
 5224.0000      70.0469      2.4013     95.4531      2.2781     16.6219
 5225.0000      70.5781      2.3860    100.9062      2.3500     17.8625
 5226.0000      70.6250      2.3805    101.5469      2.3844     18.5562
 5227.0000      70.5938      2.3745    101.7188      2.4406     18.4719
 5228.0000      70.4688      2.3711    101.7031      2.4531     17.7281
 5229.0000      69.9531      2.3718     99.6719      2.3844     17.2344
 5230.0000      68.8438      2.3761     98.5625      2.3563     16.4375
 5231.0000      67.3438      2.3834    101.3594      2.3469     14.7750
 5232.0000      65.6719      2.3954    104.3281      2.3406     13.6313
 5233.0000      64.5000      2.4153    117.8438      2.3906     13.5406
 5234.0000      62.9531      2.4548    146.8281      2.7812     16.2531
 5235.0000      60.8125      2.5454    169.9375      4.0469     18.5469
 5236.0000      59.2500      2.5853    177.7344      3.8906     13.0406
 5237.0000      58.1875      2.5885    198.7656      3.4531     10.9563
 5238.0000      57.3750      2.5914    276.3906      3.3844      9.9594
 5239.0000      54.6250      2.5840    309.5156      3.3188      7.0000
 5240.0000      52.0000      2.5999    305.1719      3.2781      4.2406
 5241.0000      51.7812      2.6075    288.8750      3.1094      3.8188
 5242.0000      53.5000      2.6029    252.5156      2.7219      4.0813
 5243.0000      54.1406      2.5926    213.2656      2.7000      4.4656
 5244.0000      54.7031      2.5858    191.2031      2.6406      4.9781
 5245.0000      55.3125      2.5869    198.4062      2.5688      5.1562
 5246.0000      53.9531      2.6233    239.0781      2.8375      3.7031
 5247.0000      54.1094      2.6426    292.0469      3.1281      3.3969
 5248.0000      55.5469      2.6485    279.6562      3.2219      4.0156
 5249.0000      56.4062      2.6411    234.1719      3.3906      5.6094
 5250.0000      56.5625      2.6338    205.7500      3.5938      6.5344
 5251.0000      55.5781      2.6404    195.8750      3.5625      6.8781
 5252.0000      54.1250      2.6793    191.5312      3.2406      5.7313
 5253.0000      54.1562      2.6953    193.7500      3.2531      4.6844
 5254.0000      56.5000      2.6896    195.2344      3.5625      7.5625
 5255.0000      57.5000      2.6883    199.4375      3.7125     14.1125
 5256.0000      55.7812      2.6694    216.5469      3.4813     10.8438
 5257.0000      53.3281      2.6094    227.6250      3.3688      6.6844
 5258.0000      51.8281      2.5964    198.6094      3.3375      3.5938
 5259.0000      51.5000      2.6041    167.8281      3.3375      2.5312
 5260.0000      51.7500      2.6175    162.7344      3.2469      2.6531
 5261.0000      52.1250      2.6301    172.7188      3.0312      3.0688
 5262.0000      52.6094      2.6361    183.3750      3.0438      3.6594
 5263.0000      53.0000      2.6220    188.5469      3.0563      4.0781
 5264.0000      53.2188      2.6191    189.7500      3.2625      4.1219
 5265.0000      52.6406      2.6216    191.8906      3.2094      3.6906
 5266.0000      51.8750      2.6425    192.0156      3.0875      3.1063
 5267.0000      51.0781      2.6745    187.0938      3.1813      2.7062
 5268.0000      50.8438      2.6834    180.4375      3.3219      2.4031
 5269.0000      50.9375      2.6820    176.4688      3.2156      2.2656
 5270.0000      51.2969      2.6799    181.8438      3.0094      2.2531
 5271.0000      51.4219      2.6704    192.9062      2.9625      2.3875
 5272.0000      51.3125      2.6384    187.1719      3.0906      2.7344
 5273.0000      51.2969      2.6266    177.6406      3.2250      3.3406
 5274.0000      51.6562      2.6360    175.0000      3.3406      4.0969
 5275.0000      51.5781      2.6556    172.3438      3.3594      3.0563
 5276.0000      51.2812      2.6769    169.7656      3.2969      2.3563
 5277.0000      51.5156      2.7090    173.1562      3.3250      2.4781
 5278.0000      51.9375      2.7060    181.3438      3.1875      2.4656
 5279.0000      51.8125      2.6969    169.9844      2.9500      2.1875
 5280.0000      51.8906      2.7406    166.1250      2.7625      2.0094
 5281.0000      52.7344      2.6889    183.4219      2.8312      1.9844
 5282.0000      52.8906      2.6281    195.3906      2.9281      2.0469
 5283.0000      52.1562      2.6258    201.5938      2.9531      2.0938
 5284.0000      51.4688      2.6556    206.2500      2.9438      1.8594
 5285.0000      51.4688      2.5416    206.0156      2.7625      1.6531
 5286.0000      52.3750      2.2719    202.5469      2.4875      1.7406
 5287.0000      52.9062      2.2508    195.2500      2.5031      2.3750
 5288.0000      53.0469      2.5891    200.3281      2.8438      3.0750
 5289.0000      52.6094      2.6534    208.1094      3.1531      3.2406
 5290.0000      52.3906      2.6521    208.6406      3.2750      3.3656
 5291.0000      52.7656      2.6476    208.0156      3.5625      3.7062
 5292.0000      53.1875      2.6745    206.1406      3.4844      4.0875
 5293.0000      52.8750      2.6741    205.6094      3.3188      3.9781
 5294.0000      53.0469      2.6161    206.5938      3.1375      3.1906
 5295.0000      53.6406      2.4979    211.9062      3.0125      2.6625
 5296.0000      53.2344      2.4814    212.3125      3.0688      2.6063
 5297.0000      52.5156      2.6114    207.9531      3.0312      2.7687
 5298.0000      52.4062      2.6741    205.7969      2.9125      2.6906
 5299.0000      52.2188      2.6928    207.7031      2.8937      2.2188
 5300.0000      51.8750      2.6890    209.2656      2.8406      2.1281
 5301.0000      51.3438      2.5928    209.0625      2.6375      2.4062
 5302.0000      51.5156      2.5338    211.7812      2.5781      2.6344
 5303.0000      53.5469      2.1564    215.1250      2.5281      2.5438
 5304.0000      54.8438      1.9989    216.2969      2.4031      2.7906
 5305.0000      54.2656      1.9994    216.6250      2.3563      2.8219
 5306.0000      53.5156      2.1818    216.2656      2.5125      3.1906
 5307.0000      53.7344      2.2826    216.0625      2.6562      3.7531
 5308.0000      53.8906      2.3758    215.6562      2.7031      3.5281
 5309.0000      53.2344      2.5563    215.3750      2.8312      3.0125
