~VERSION INFORMATION 
VERS.            2.0: LAS LOG ASCII STANDARD VERSION 2.0 
WRAP.             NO: ONE LINE PER DEPTH STEP 
~WELL INFORMATION 
#MNEM.UNIT     DATA                   DESCRIPTION    
#------------------------------------------------
STRT.F      46.0000                    : 
STOP.F    5364.0000                    : 
STEP.F       1.0000                    : 
NULL.       -999.25                    : 
WELL.        J. DONALDSON #1                : WELL NAME       
LONG.        0.0000000                      : LONGITUDE       
LAT.         0.0000000                      : LATITUDE        
SEC.         15                             : SECTION         
STAT.        OH                             : STATE           
TWP.         MILLER                              : TOWNSHIP        
PROJ.        RED #326                       : PROJECT         
DATE.        90/12/17                       : DATE            
OPER.        EDCO DRLG & PROD               : OPERATOR        
ORIG.        KB                             : LOG ORIGIN      
API.         3408323915                     : API             
CMNT1.       API SERIAL # 3-4093-2          : COMMENT 1       
CMNT2.       PERMIT #3915                   : COMMENT 2       
RGE.         1                              : RANGE           
CNTY.        KNOX                           : COUNTY          
LOC.         560'NL & 1056'EL OF SEC 15     : LOCATION DESC   
~TOPS
BIG LIME              1336.00
BASE BIG LIME         2084.00
PACKER SHELL          2170.00
STRAY                 2208.00
TRENTON               3522.00
BLACK RIVER           3678.00
GULL RIVER            4062.00
GLENWOOD              4122.00
TREMPEALEAU           4160.00
LCR                   4364.00
CONASAUGA             4660.00
ROME                  4762.00
MT. SIMON             5132.00
GRANITE               5234.00
~CURVE INFORMATION 
#MNEM.UNIT     API CODE               CURVE DESCRIPTION
#------------------------------------------------------
DEPT.F                                 : 1 DEPTH
DT  .usec/ft                        : 2 SONIC
RHOB.gm/cc                          : 3 DENSITY
GR  .API UNITS                      : 4 GAMMA RAY
PEF .barns/elec                     : 5 PEF
NPHI.%                              : 6 NEUTRON POR
~PARAMETER INFORMATION 
#MNEM.UNIT     VALUE                  DESCRIPTION
#------------------------------------------------
EKB.F        1086.000                 : ELEVATION KB
~A   DEPTH           DT        RHOB          GR         PEF        NPHI
# ...
 1166.0000      87.1562      2.4639    254.5625      3.1969     29.5813
 1167.0000      86.9219      2.4625    249.5625      3.0625     29.6750
 1168.0000      87.1562      2.4765    245.3438      2.8219     28.9406
 1169.0000      87.7969      2.5013    247.6094      2.7875     28.5562
 1170.0000      89.5781      2.5014    257.0156      2.8406     29.7156
 1171.0000      91.5156      2.4926    250.4531      3.0187     32.8031
 1172.0000      92.6719      2.5000    249.7031      3.2313     33.4469
 1173.0000      93.7344      2.4624    276.7500      3.0406     34.1031
 1174.0000      94.5000      2.4123    261.7188      2.8906     34.5406
 1175.0000      95.0625      2.3944    241.4375      2.8344     35.2250
 1176.0000      95.1406      2.3904    235.2344      2.8813     35.5000
 1177.0000      93.6562      2.3855    233.8594      2.9594     36.2656
 1178.0000      92.7969      2.3731    228.8125      3.0500     37.7656
 1179.0000      90.6875      2.3734    216.7500      3.1313     35.9031
 1180.0000      80.2031      2.4099    184.9375      3.7219     27.5375
 1181.0000      77.5469      2.5098    179.3594      3.7219     24.5375
 1182.0000      83.3438      2.5074    209.9062      3.0312     29.5781
 1183.0000      89.7812      2.4498    219.5938      2.9375     35.9219
 1184.0000      90.3594      2.4279    235.9375      2.9062     34.7875
 1185.0000      89.3438      2.4239    261.9688      2.8906     33.2344
 1186.0000      88.1719      2.4333    266.8750      2.9313     32.2469
 1187.0000      88.2188      2.4544    276.4531      2.9469     30.6781
 1188.0000      88.5000      2.4485    284.1094      2.9781     31.0031
 1189.0000      87.6875      2.4504    275.9688      3.0906     30.9594
 1190.0000      86.5938      2.4641    265.2188      3.1500     29.8875
 1191.0000      86.6250      2.4855    263.7344      3.1969     30.2000
 1192.0000      87.7344      2.4814    263.7031      3.1313     31.1625
 1193.0000      88.9844      2.4791    261.9688      3.1094     32.0625
 1194.0000      91.2969      2.4729    273.2188      3.2062     35.4625
 1195.0000      93.7500      2.4455    285.7188      3.2250     35.9406
 1196.0000      96.4219      2.4031    279.3438      3.0938     35.5469
 1197.0000      96.1250      2.4000    249.4219      3.0906     34.2531
 1198.0000      94.8125      2.4174    249.2969      3.1969     35.0187
 1199.0000      94.2344      2.4220    251.2031      3.2406     34.3781
 1200.0000      94.7031      2.4055    246.5781      3.1625     34.9375
 1201.0000      94.2031      2.4064    231.2344      3.1906     35.3656
 1202.0000      93.7656      2.4238    226.1250      3.2469     34.7594
 1203.0000      94.0156      2.4334    231.1406      3.1656     33.0375
 1204.0000      93.8125      2.4454    231.4219      3.0094     33.6531
 1205.0000      90.7188      2.4690    205.2812      2.9750     32.2062
 1206.0000      88.2188      2.5280    212.2188      3.0250     29.6938
 1207.0000      91.7344      2.5030    245.9531      3.0656     34.6844
 1208.0000      92.8750      2.4725    241.4375      3.0312     35.9375
 1209.0000      94.6094      2.4635    246.4844      2.9344     37.0844
 1210.0000      98.2812      2.3853    246.7812      2.8406     37.6656
 1211.0000      97.5781      2.3625    250.1406      2.9062     39.5187
 1212.0000      94.7500      2.3936    252.0469      3.1031     37.9500
 1213.0000      92.6250      2.4378    240.5312      3.2094     33.7219
 1214.0000      90.6250      2.4678    209.1562      3.1000     28.5281
 1215.0000      87.0938      2.5413    160.0000      3.0312     25.7469
 1216.0000      86.7344      2.5946    190.5781      3.0531     26.6844
 1217.0000      90.2188      2.5328    209.7500      3.0844     31.8219
 1218.0000      92.2812      2.5039    232.0312      3.1156     32.3188
 1219.0000      91.8281      2.4990    238.0000      3.0406     32.5312
 1220.0000      90.7500      2.5059    223.3438      3.1281     31.2406
 1221.0000      90.0625      2.5195    228.6719      3.1156     30.9406
 1222.0000      90.8438      2.4818    241.1094      2.9625     33.4375
 1223.0000      91.3906      2.4531    242.6719      2.8312     32.9313
 1224.0000      91.1250      2.4428    236.2188      2.7875     32.3969
 1225.0000      90.7500      2.4425    229.4844      2.8563     32.7125
 1226.0000      90.5625      2.4435    218.5938      3.0250     32.7812
 1227.0000      90.0469      2.4555    203.6719      3.0531     31.2656
 1228.0000      90.3594      2.4660    197.3906      3.0969     31.6000
 1229.0000      90.8125      2.4643    208.2656      3.0938     32.9250
 1230.0000      89.5781      2.4699    228.7188      3.0156     32.6281
 1231.0000      88.4688      2.4810    236.2969      2.9313     29.8938
 1232.0000      88.1250      2.4829    243.3438      3.0000     30.7063
 1233.0000      88.1094      2.4631    245.9844      3.0719     30.6688
 1234.0000      88.2969      2.4329    248.9844      3.0219     30.0063
 1235.0000      89.6875      2.4003    250.7500      3.0094     31.4219
 1236.0000      90.4375      2.3824    252.0312      3.1750     31.9375
 1237.0000      91.4688      2.3994    282.3125      3.4031     33.6156
 1238.0000      95.7344      2.3851    291.7969      3.3469     35.6969
 1239.0000      95.0625      2.3834    230.7500      3.0625     36.0375
 1240.0000      90.7812      2.4785    206.6562      3.1969     32.6188
 1241.0000      86.2969      2.5808    126.6250      3.4062     27.8094
 1242.0000      77.3594      2.6206    105.8438      3.3844     21.1906
 1243.0000      74.9375      2.6776    100.5781      3.2844     20.2406
 1244.0000      75.0938      2.6781    102.0156      3.2719     22.5281
 1245.0000      75.9375      2.6841    102.2344      3.2844     23.7594
 1246.0000      76.3438      2.7096     99.9062      3.4344     24.1031
 1247.0000      75.7969      2.7133     98.5000      3.4531     23.4469
 1248.0000      75.4062      2.6910    101.3438      3.2875     22.1969
 1249.0000      77.2656      2.6754    110.8906      3.1375     24.4156
 1250.0000      80.9844      2.6640    120.7969      3.1844     25.7344
 1251.0000      82.0781      2.6719    120.1094      3.2375     25.7719
 1252.0000      81.0938      2.6788    114.5938      3.1688     24.8875
 1253.0000      80.9688      2.6776    117.2031      3.2125     25.3406
 1254.0000      81.8906      2.6711    123.7344      3.3750     26.2281
 1255.0000      82.8906      2.6653    126.8594      3.2969     26.7125
 1256.0000      82.2812      2.6654    122.0469      3.1000     27.0906
 1257.0000      79.3906      2.6744    108.4688      3.1594     24.7344
 1258.0000      75.8750      2.6811    111.6562      3.3937     23.1781
 1259.0000      79.4062      2.6640    142.2969      3.4562     25.3406
 1260.0000      85.7500      2.6375    154.5938      3.5187     29.5312
 1261.0000      88.1094      2.6179    160.5156      3.4656     30.4563
 1262.0000      87.8438      2.6059    163.0312      3.3312     30.0469
 1263.0000      86.8750      2.6388    152.6094      3.5875     29.8594
 1264.0000      85.1094      2.6428    132.4844      3.6437     30.7156
 1265.0000      81.0781      2.6503    119.6562      3.4656     26.8031
 1266.0000      77.5938      2.6650    110.3594      3.3375     25.0781
 1267.0000      79.7344      2.6706    122.5469      3.1719     28.6562
 1268.0000      81.6719      2.6703    128.4219      3.0688     29.3656
 1269.0000      80.7344      2.6734    119.5781      3.1656     26.1938
 1270.0000      78.1094      2.6793    110.9062      3.2062     24.6156
 1271.0000      77.6250      2.6853    109.1250      3.3000     24.5125
 1272.0000      79.0625      2.6808    115.9688      3.3813     24.6812
 1273.0000      82.6875      2.6651    126.5469      3.2875     28.8000
 1274.0000      84.0781      2.6608    126.3125      3.3000     29.5813
 1275.0000      82.1875      2.6659    120.4844      3.4625     28.8844
 1276.0000      80.4688      2.6779    111.6094      3.6031     27.1719
 1277.0000      79.9375      2.6746    114.4531      3.6813     27.7906
