~VERSION INFORMATION 
VERS.            2.0: LAS LOG ASCII STANDARD VERSION 2.0 
WRAP.             NO: ONE LINE PER DEPTH STEP 
~WELL INFORMATION 
#MNEM.UNIT     DATA                   DESCRIPTION    
#------------------------------------------------
STRT.F      46.0000                    : 
STOP.F    5364.0000                    : 
STEP.F       1.0000                    : 
NULL.       -999.25                    : 
WELL.        J. DONALDSON #1                : WELL NAME       
LONG.        0.0000000                      : LONGITUDE       
LAT.         0.0000000                      : LATITUDE        
SEC.         15                             : SECTION         
STAT.        OH                             : STATE           
TWP.         MILLER                              : TOWNSHIP        
PROJ.        RED #326                       : PROJECT         
DATE.        90/12/17                       : DATE            
OPER.        EDCO DRLG & PROD               : OPERATOR        
ORIG.        KB                             : LOG ORIGIN      
API.         3408323915                     : API             
CMNT1.       API SERIAL # 3-4093-2          : COMMENT 1       
CMNT2.       PERMIT #3915                   : COMMENT 2       
RGE.         1                              : RANGE           
CNTY.        KNOX                           : COUNTY          
LOC.         560'NL & 1056'EL OF SEC 15     : LOCATION DESC   
~TOPS
BIG LIME              1336.00
BASE BIG LIME         2084.00
PACKER SHELL          2170.00
STRAY                 2208.00
TRENTON               3522.00
BLACK RIVER           3678.00
GULL RIVER            4062.00
GLENWOOD              4122.00
TREMPEALEAU           4160.00
LCR                   4364.00
CONASAUGA             4660.00
ROME                  4762.00
MT. SIMON             5132.00
GRANITE               5234.00
~CURVE INFORMATION 
#MNEM.UNIT     API CODE               CURVE DESCRIPTION
#------------------------------------------------------
DEPT.F                                 : 1 DEPTH
DT  .usec/ft                        : 2 SONIC
RHOB.gm/cc                          : 3 DENSITY
GR  .API UNITS                      : 4 GAMMA RAY
PEF .barns/elec                     : 5 PEF
NPHI.%                              : 6 NEUTRON POR
~PARAMETER INFORMATION 
#MNEM.UNIT     VALUE                  DESCRIPTION
#------------------------------------------------
EKB.F        1086.000                 : ELEVATION KB
~A   DEPTH           DT        RHOB          GR         PEF        NPHI
# ...
 1838.0000      47.0781      2.8556     15.8438      3.1688      5.0031
 1839.0000      46.0625      2.8433     14.1094      3.3625      4.7781
 1840.0000      45.4844      2.8455     14.5000      3.4906      5.3563
 1841.0000      45.9844      2.8408     18.5312      3.2969      7.6813
 1842.0000      47.3125      2.8401     23.9062      3.1094      8.9906
 1843.0000      49.0781      2.8329     28.8438      3.0563      9.8562
 1844.0000      51.0469      2.8225     31.5469      3.0781     10.5219
 1845.0000      52.0469      2.8228     31.1094      3.0094     10.3719
 1846.0000      51.5781      2.8333     27.5625      2.9719      8.9406
 1847.0000      49.1406      2.8413     23.6719      3.0563      6.3844
 1848.0000      47.8906      2.8338     23.4219      3.1594      6.4781
 1849.0000      48.4375      2.8408     25.2500      3.3688      5.1625
 1850.0000      49.6406      2.8751     24.8125      3.4500      4.8281
 1851.0000      49.7031      2.8554     22.9688      3.1375      6.7375
 1852.0000      48.9219      2.8480     23.2344      2.9313      6.3406
 1853.0000      48.2812      2.8501     22.0625      2.8844      5.9750
 1854.0000      47.8750      2.8430     20.0938      2.9969      6.0750
 1855.0000      47.6875      2.8313     18.7656      3.1813      6.4250
 1856.0000      47.7188      2.8323     19.2031      3.2094      5.3125
 1857.0000      48.0156      2.8485     22.2969      3.4531      3.4031
 1858.0000      48.9375      2.8748     22.3906      3.9156      2.5063
 1859.0000      50.0000      2.8929     21.2656      3.6344      5.1188
 1860.0000      49.2500      2.8566     26.6094      3.2313      5.4625
 1861.0000      47.4844      2.8466     26.0000      3.1313      4.5062
 1862.0000      45.6719      2.8366     20.5625      3.1594      4.3438
 1863.0000      45.0312      2.8255     16.3750      3.3312      4.5156
 1864.0000      44.8438      2.8288     15.2031      3.3844      4.8219
 1865.0000      45.0156      2.8461     15.9219      3.2750      4.6125
 1866.0000      45.1250      2.8853     15.5781      3.2750      4.0062
 1867.0000      45.1250      2.8736     14.5781      3.2563      3.4594
 1868.0000      45.0312      2.8643     14.7812      3.2938      3.1406
 1869.0000      44.7344      2.8706     13.6406      3.2125      2.8063
 1870.0000      44.5625      2.8665     12.3594      3.4031      2.5719
 1871.0000      44.5156      2.8531     12.3125      3.6031      2.7687
 1872.0000      44.7188      2.8449     13.8594      3.4125      3.2781
 1873.0000      45.5000      2.8524     19.2188      3.1125      5.0781
 1874.0000      46.5781      2.8420     25.3281      3.0094      7.2406
 1875.0000      48.0000      2.8409     27.2031      2.9531      7.2344
 1876.0000      48.0781      2.8544     25.5312      2.9156      6.3375
 1877.0000      47.3438      2.8676     22.8750      3.0031      5.6219
 1878.0000      46.9531      2.8574     21.3594      3.2844      5.7781
 1879.0000      47.0469      2.8260     20.8594      3.0281      5.9906
 1880.0000      47.1250      2.8306     23.1719      2.9062      6.0687
 1881.0000      47.1250      2.8293     23.0469      3.0094      5.9813
 1882.0000      47.1250      2.8220     22.9219      3.1844      6.0875
 1883.0000      47.1562      2.8265     23.8594      2.8656      6.3781
 1884.0000      47.3438      2.8436     25.4375      2.7656      6.7844
 1885.0000      47.5781      2.8536     27.2656      2.8031      6.8438
 1886.0000      47.8594      2.8456     29.9062      3.0312      7.1688
 1887.0000      48.2344      2.8361     31.2500      3.3594      7.7344
 1888.0000      48.5625      2.8260     29.8125      3.1844      7.9719
 1889.0000      48.8125      2.8226     28.5156      2.9813      7.9906
 1890.0000      49.0938      2.8238     28.7812      3.0844      8.3063
 1891.0000      49.5156      2.8250     31.7031      3.2875      9.1750
 1892.0000      50.1875      2.8328     33.2031      3.4250      8.8938
 1893.0000      50.5469      2.8394     34.5938      3.4688      8.7781
 1894.0000      50.9844      2.8385     35.9688      3.3094      9.7375
 1895.0000      51.4688      2.8371     36.4844      3.9250      9.9781
 1896.0000      51.4844      2.8779     34.7344      5.3375      9.1188
 1897.0000      50.3906      2.8815     31.3594      4.5250      7.5031
 1898.0000      49.1719      2.8528     27.7188      3.8969      7.9531
 1899.0000      48.9844      2.8419     28.7031      3.6188      8.9906
 1900.0000      49.7812      2.8285     31.8594      3.5219      9.3219
 1901.0000      49.6250      2.8321     29.7656      3.0781      5.5625
 1902.0000      47.4844      2.8423     22.4219      2.8406      4.8094
 1903.0000      45.3750      2.8511     18.5625      2.8438      4.8719
 1904.0000      45.5938      2.8530     19.1406      2.9094      5.6750
 1905.0000      46.6406      2.8424     21.7812      2.9406      9.3125
 1906.0000      50.5156      2.8261     29.8750      3.0563     11.8938
 1907.0000      53.0000      2.8141     40.9062      3.3312     12.0563
 1908.0000      53.2656      2.8143     40.7188      2.7531     12.0375
 1909.0000      52.1562      2.8260     36.4219      2.7531     10.4688
 1910.0000      49.9844      2.8511     27.1406      2.8813      6.4938
 1911.0000      47.5469      2.8408     19.5156      3.0031      4.1031
 1912.0000      46.3438      2.8419     17.0156      2.9062      3.5531
 1913.0000      45.2969      2.8549     17.1875      2.9250      3.8656
 1914.0000      44.9688      2.8581     17.8750      2.9781      4.4188
 1915.0000      45.0781      2.8540     17.8125      3.1344      4.6219
 1916.0000      45.6719      2.8556     15.9531      3.3969      3.9938
 1917.0000      45.8438      2.8665     16.0000      3.1562      4.7375
 1918.0000      45.8125      2.8655     18.4375      2.9625      6.2812
 1919.0000      46.4375      2.8516     20.9219      3.2281      7.7688
 1920.0000      47.2031      2.8435     21.8906      3.4094      7.8313
 1921.0000      47.7031      2.8478     23.4062      3.3312      8.0500
 1922.0000      48.0156      2.8530     25.3750      3.2094      8.5063
 1923.0000      48.6406      2.8455     25.9375      3.2750      9.1750
 1924.0000      49.3438      2.8389     25.4531      3.4906      9.3875
 1925.0000      49.9531      2.8316     26.3750      3.4031      9.5000
 1926.0000      50.3125      2.8296     25.7500      3.1406      9.4187
 1927.0000      50.5469      2.8329     25.1875      3.1875      8.8719
 1928.0000      50.5312      2.8333     24.5469      3.2313      8.1344
 1929.0000      50.6875      2.8494     22.7500      3.4281      3.2094
 1930.0000      51.0000      2.8865     20.5938      3.9656      1.9062
 1931.0000      50.8750      2.9079     18.7812      4.3750      1.0875
 1932.0000      50.5938      2.9238     15.0156      4.4531      0.7250
 1933.0000      50.2969      2.9538     18.2969      4.2406      1.4813
 1934.0000      51.1406      2.8961     29.4375      3.5781      7.4188
 1935.0000      51.8750      2.8441     30.5469      3.3375      8.6094
 1936.0000      50.3906      2.8501     20.7500      3.5250      2.8781
 1937.0000      49.5625      2.8993     17.4219      4.1375      1.0844
 1938.0000      49.7344      2.9339     18.5781      4.0500      2.1969
 1939.0000      49.1406      2.9180     18.5781      3.5375      2.5750
 1940.0000      47.5625      2.9061     16.2344      3.3188      1.8938
 1941.0000      46.7188      2.9166     15.0312      3.4938      1.4969
 1942.0000      47.3438      2.9268     15.9844      3.7313      1.8563
 1943.0000      48.8125      2.9110     19.1250      3.7781      2.2719
 1944.0000      48.9062      2.9085     20.3281      3.5594      2.7031
 1945.0000      47.5156      2.9136     22.3438      4.0781      3.6656
 1946.0000      46.3594      2.9246     25.9688      4.7250      5.5000
 1947.0000      46.7969      2.8990     31.3438      3.9562      7.4719
 1948.0000      47.6875      2.8204     34.0469      3.4281      8.2094
 1949.0000      48.1562      2.8140     31.3594      3.1969      8.4375
