~VERSION INFORMATION 
VERS.            2.0: LAS LOG ASCII STANDARD VERSION 2.0 
WRAP.             NO: ONE LINE PER DEPTH STEP 
~WELL INFORMATION 
#MNEM.UNIT     DATA                   DESCRIPTION    
#------------------------------------------------
STRT.F      46.0000                    : 
STOP.F    5364.0000                    : 
STEP.F       1.0000                    : 
NULL.       -999.25                    : 
WELL.        J. DONALDSON #1                : WELL NAME       
LONG.        0.0000000                      : LONGITUDE       
LAT.         0.0000000                      : LATITUDE        
SEC.         15                             : SECTION         
STAT.        OH                             : STATE           
TWP.         MILLER                              : TOWNSHIP        
PROJ.        RED #326                       : PROJECT         
DATE.        90/12/17                       : DATE            
OPER.        EDCO DRLG & PROD               : OPERATOR        
ORIG.        KB                             : LOG ORIGIN      
API.         3408323915                     : API             
CMNT1.       API SERIAL # 3-4093-2          : COMMENT 1       
CMNT2.       PERMIT #3915                   : COMMENT 2       
RGE.         1                              : RANGE           
CNTY.        KNOX                           : COUNTY          
LOC.         560'NL & 1056'EL OF SEC 15     : LOCATION DESC   
~TOPS
BIG LIME              1336.00
BASE BIG LIME         2084.00
PACKER SHELL          2170.00
STRAY                 2208.00
TRENTON               3522.00
BLACK RIVER           3678.00
GULL RIVER            4062.00
GLENWOOD              4122.00
TREMPEALEAU           4160.00
LCR                   4364.00
CONASAUGA             4660.00
ROME                  4762.00
MT. SIMON             5132.00
GRANITE               5234.00
~CURVE INFORMATION 
#MNEM.UNIT     API CODE               CURVE DESCRIPTION
#------------------------------------------------------
DEPT.F                                 : 1 DEPTH
DT  .usec/ft                        : 2 SONIC
RHOB.gm/cc                          : 3 DENSITY
GR  .API UNITS                      : 4 GAMMA RAY
PEF .barns/elec                     : 5 PEF
NPHI.%                              : 6 NEUTRON POR
~PARAMETER INFORMATION 
#MNEM.UNIT     VALUE                  DESCRIPTION
#------------------------------------------------
EKB.F        1086.000                 : ELEVATION KB
~A   DEPTH           DT        RHOB          GR         PEF        NPHI
# ...
 3070.0000      76.7656      2.7141    105.7031      3.4656     24.9531
 3071.0000      75.0000      2.7130    102.4531      3.6344     21.9813
 3072.0000      75.7812      2.7139    107.1562      3.6562     24.1187
 3073.0000      77.0000      2.7079    107.6094      3.5781     25.9188
 3074.0000      76.9219      2.6968    103.7188      3.6437     24.8188
 3075.0000      76.0781      2.7048    106.0312      3.8219     24.6313
 3076.0000      76.1406      2.7096    107.5156      3.6156     23.6313
 3077.0000      76.4531      2.7068    107.1094      3.5125     23.6938
 3078.0000      76.7969      2.7005    106.8750      3.5094     25.7094
 3079.0000      76.1250      2.7033    108.0156      3.6594     25.2938
 3080.0000      75.8125      2.7051    110.7812      3.7438     23.9469
 3081.0000      76.1406      2.6963    112.4844      3.7125     24.2719
 3082.0000      76.2812      2.6939    112.3125      3.6375     23.4813
 3083.0000      75.2031      2.6926    109.9375      3.6156     22.3500
 3084.0000      75.4688      2.6946    109.7656      3.8906     22.8188
 3085.0000      76.3594      2.6933    109.7656      3.9281     23.6438
 3086.0000      76.6406      2.6846    107.7031      3.7188     24.1562
 3087.0000      76.0781      2.6649    105.2969      3.5563     23.6344
 3088.0000      75.7500      2.6979    104.9531      3.5469     24.6781
 3089.0000      76.3594      2.7119    108.1562      3.4344     25.2625
 3090.0000      76.3906      2.7069    107.3906      3.2844     24.9438
 3091.0000      75.4688      2.7129    105.1406      3.4813     25.2437
 3092.0000      75.5625      2.7021    102.5000      3.8813     25.6000
 3093.0000      74.9062      2.6763    102.1562      4.0375     22.6906
 3094.0000      72.7812      2.6850    101.2344      4.0375     21.1406
 3095.0000      73.7031      2.7051    104.6562      3.8188     24.2156
 3096.0000      75.5938      2.7165    108.3125      3.6344     26.3281
 3097.0000      76.3125      2.7076    109.8750      3.5250     27.2750
 3098.0000      75.8750      2.6734    109.6875      3.4625     26.1531
 3099.0000      74.9062      2.6571    108.0781      3.5594     23.8438
 3100.0000      74.6406      2.6728    105.3125      3.5938     24.8000
 3101.0000      74.2969      2.6794    102.4688      3.6000     25.1313
 3102.0000      74.4375      2.6864    105.0469      3.6781     21.7094
 3103.0000      75.2656      2.6948    110.2344      3.5000     24.1375
 3104.0000      76.2031      2.6994    107.6719      3.3781     24.8094
 3105.0000      76.6250      2.6614    106.8750      3.2344     23.8656
 3106.0000      76.1094      2.6315    108.9688      3.1562     23.0156
 3107.0000      75.5938      2.6918    110.5938      3.2281     23.5625
 3108.0000      75.2969      2.7041    109.0000      3.4281     24.0531
 3109.0000      75.5625      2.6828    109.7031      3.7000     23.7750
 3110.0000      76.0312      2.6804    110.1250      3.5781     24.0813
 3111.0000      76.3438      2.6589    109.4375      3.4281     25.1000
 3112.0000      76.2812      2.6560    107.6562      3.4344     24.8062
 3113.0000      75.6562      2.6790    106.9844      3.5063     24.5469
 3114.0000      75.4062      2.7118    106.6250      3.5625     24.1344
 3115.0000      75.9531      2.7245    106.2500      3.5187     24.6094
 3116.0000      76.4531      2.7078    111.1719      3.4688     25.2844
 3117.0000      76.5625      2.7140    108.9375      3.5125     25.4250
 3118.0000      75.9062      2.7084    105.1406      3.4469     25.1125
 3119.0000      74.9688      2.6825    102.4844      3.4031     24.2906
 3120.0000      75.0000      2.6839    103.5781      3.4500     24.2969
 3121.0000      75.8594      2.6681    104.9062      3.2469     24.7531
 3122.0000      76.8438      2.6600    106.3594      3.2219     25.0031
 3123.0000      77.3125      2.6763    108.0938      3.4656     25.5375
 3124.0000      77.3438      2.6725    109.5000      3.3344     26.8344
 3125.0000      76.9375      2.6569    109.4844      3.2031     26.2938
 3126.0000      76.1094      2.6815    108.4531      3.4125     23.9375
 3127.0000      76.3125      2.6915    108.4688      3.4719     25.6000
 3128.0000      77.0000      2.6633    109.5156      3.3688     27.1438
 3129.0000      76.8594      2.6805    108.0781      3.3312     27.3469
 3130.0000      76.8125      2.6876    105.7188      3.3406     26.9094
 3131.0000      76.9219      2.6970    104.7969      3.2719     25.9000
 3132.0000      76.7344      2.6956    106.6719      3.2000     25.5000
 3133.0000      76.5781      2.6840    107.3281      3.2844     23.5250
 3134.0000      75.8750      2.6958    106.8594      3.6469     23.0156
 3135.0000      75.6875      2.6958    104.2812      3.6281     23.7719
 3136.0000      75.9844      2.6593    103.5312      3.4188     24.4000
 3137.0000      76.3906      2.6524    107.8594      3.4094     24.7750
 3138.0000      76.5156      2.6770    106.4062      3.4594     24.2437
 3139.0000      76.2188      2.6819    104.8594      3.4281     24.2750
 3140.0000      76.0156      2.6845    105.8438      3.3250     25.0969
 3141.0000      75.4375      2.7045    102.6719      3.5000     24.2625
 3142.0000      74.8125      2.6766     98.8281      3.7719     23.0063
 3143.0000      75.2188      2.6610    104.9062      3.5844     24.6094
 3144.0000      76.1094      2.7081    108.7500      3.5469     25.0281
 3145.0000      76.6406      2.7133    109.1250      3.5469     24.4719
 3146.0000      76.5781      2.7018    108.5000      3.2938     25.3656
 3147.0000      76.2656      2.6756    108.5938      3.3875     26.1281
 3148.0000      75.7188      2.6625    107.8750      3.5906     23.4031
 3149.0000      75.7188      2.6514    106.5938      3.4062     23.7219
 3150.0000      75.9844      2.6589    106.9688      3.2281     24.5531
 3151.0000      76.0781      2.6660    106.8906      3.2969     24.2437
 3152.0000      76.0312      2.6930    106.5000      3.6938     24.1500
 3153.0000      75.5000      2.7011    106.5469      3.7594     24.1969
 3154.0000      75.2188      2.7028    106.3125      3.4875     23.9906
 3155.0000      75.3281      2.6669    107.3750      3.4250     23.5875
 3156.0000      75.3281      2.6461    106.6406      3.3969     23.5406
 3157.0000      75.6406      2.6626    106.3438      3.3656     23.9813
 3158.0000      75.8281      2.6585    106.7188      3.3625     24.2156
 3159.0000      76.2344      2.6669    108.4688      3.3438     24.7844
 3160.0000      76.9844      2.6778    109.5938      3.2969     25.3750
 3161.0000      76.9062      2.6963    110.0781      3.2938     25.1313
 3162.0000      76.5156      2.7203    109.8438      3.3719     24.6125
 3163.0000      76.4375      2.7085    107.7812      3.4375     24.3813
 3164.0000      76.6094      2.6934    104.7031      3.4844     24.3219
 3165.0000      76.3125      2.6905    104.4062      3.4969     24.4531
 3166.0000      75.6875      2.6975    108.1250      3.4625     24.7437
 3167.0000      75.4844      2.7049    108.6875      3.2531     24.6688
 3168.0000      75.8125      2.7160    108.9531      3.2781     24.7031
 3169.0000      76.4688      2.7154    107.7969      3.5344     25.2063
 3170.0000      76.8594      2.7076    104.6562      3.5719     26.2500
 3171.0000      77.0312      2.7028     98.9219      3.5063     27.6656
 3172.0000      76.7812      2.7030     96.9688      3.5906     25.2313
 3173.0000      75.5469      2.7066     99.9844      3.6531     22.9000
 3174.0000      73.2969      2.7173    106.2031      3.8125     20.6688
 3175.0000      71.9062      2.7181    105.6094      3.4781     21.0844
 3176.0000      73.6406      2.7119    106.2969      3.3188     24.5188
 3177.0000      75.5312      2.7135    106.3281      3.3719     25.3313
 3178.0000      76.2500      2.7125    104.2656      3.6094     25.2781
 3179.0000      76.6250      2.7069    101.6562      3.7344     24.9062
 3180.0000      76.5469      2.7160    101.0938      3.7344     25.2500
 3181.0000      75.7344      2.7229    102.1250      4.0000     25.1031
