~VERSION INFORMATION 
VERS.            2.0: LAS LOG ASCII STANDARD VERSION 2.0 
WRAP.             NO: ONE LINE PER DEPTH STEP 
~WELL INFORMATION 
#MNEM.UNIT     DATA                   DESCRIPTION    
#------------------------------------------------
STRT.F      46.0000                    : 
STOP.F    5364.0000                    : 
STEP.F       1.0000                    : 
NULL.       -999.25                    : 
WELL.        J. DONALDSON #1                : WELL NAME       
LONG.        0.0000000                      : LONGITUDE       
LAT.         0.0000000                      : LATITUDE        
SEC.         15                             : SECTION         
STAT.        OH                             : STATE           
TWP.         MILLER                              : TOWNSHIP        
PROJ.        RED #326                       : PROJECT         
DATE.        90/12/17                       : DATE            
OPER.        EDCO DRLG & PROD               : OPERATOR        
ORIG.        KB                             : LOG ORIGIN      
API.         3408323915                     : API             
CMNT1.       API SERIAL # 3-4093-2          : COMMENT 1       
CMNT2.       PERMIT #3915                   : COMMENT 2       
RGE.         1                              : RANGE           
CNTY.        KNOX                           : COUNTY          
LOC.         560'NL & 1056'EL OF SEC 15     : LOCATION DESC   
~TOPS
BIG LIME              1336.00
BASE BIG LIME         2084.00
PACKER SHELL          2170.00
STRAY                 2208.00
TRENTON               3522.00
BLACK RIVER           3678.00
GULL RIVER            4062.00
GLENWOOD              4122.00
TREMPEALEAU           4160.00
LCR                   4364.00
CONASAUGA             4660.00
ROME                  4762.00
MT. SIMON             5132.00
GRANITE               5234.00
~CURVE INFORMATION 
#MNEM.UNIT     API CODE               CURVE DESCRIPTION
#------------------------------------------------------
DEPT.F                                 : 1 DEPTH
DT  .usec/ft                        : 2 SONIC
RHOB.gm/cc                          : 3 DENSITY
GR  .API UNITS                      : 4 GAMMA RAY
PEF .barns/elec                     : 5 PEF
NPHI.%                              : 6 NEUTRON POR
~PARAMETER INFORMATION 
#MNEM.UNIT     VALUE                  DESCRIPTION
#------------------------------------------------
EKB.F        1086.000                 : ELEVATION KB
~A   DEPTH           DT        RHOB          GR         PEF        NPHI
# ...
 2174.0000      49.4219      2.8181     19.2500      3.3219      7.5844
 2175.0000      49.0781      2.8218     19.8125      3.2656      8.0938
 2176.0000      49.2969      2.8108     19.8594      3.2062      9.2156
 2177.0000      50.1875      2.8029     26.0312      3.3500     10.5437
 2178.0000      50.0312      2.8106     25.2656      3.6375      8.0781
 2179.0000      48.9062      2.8116     20.7344      3.8937      4.3438
 2180.0000      47.9531      2.8011     18.7500      4.4469      4.2688
 2181.0000      47.8906      2.7958     17.1094      3.7062      4.2438
 2182.0000      47.8125      2.8026     16.0938      3.4625      3.4531
 2183.0000      47.6406      2.8025     17.1875      3.6406      1.7031
 2184.0000      47.7656      2.7894     16.8594      4.0375      1.3563
 2185.0000      48.0000      2.7774     15.7812      4.3375      1.5250
 2186.0000      47.7812      2.7808     15.5312      4.3688      1.8250
 2187.0000      47.7656      2.8126     16.8125      4.5438      1.7781
 2188.0000      48.0156      2.7908     18.6875      4.7188      1.5844
 2189.0000      47.9062      2.7703     19.7656      4.4375      1.6219
 2190.0000      48.2656      2.7835     22.1719      4.0344      2.2156
 2191.0000      53.3281      2.7856     52.4688      4.1063      6.9406
 2192.0000      60.1562      2.7218     63.7812      4.7688     11.8688
 2193.0000      57.6719      2.7571     39.1562      5.6000     11.4969
 2194.0000      54.1562      2.8189     31.8281      5.0594      8.7844
 2195.0000      53.1094      2.8114     28.1094      4.7562      5.3531
 2196.0000      51.1406      2.7661     22.4375      5.2938      3.1250
 2197.0000      49.4531      2.7315     13.6406      5.3906      2.1313
 2198.0000      48.6719      2.7329     15.1094      4.9250      2.5500
 2199.0000      48.2500      2.7901     19.1875      4.6594      4.0344
 2200.0000      48.3125      2.8369     22.4844      4.4719      5.5312
 2201.0000      48.5781      2.8559     21.9688      4.1750      6.5406
 2202.0000      48.7188      2.8864     21.6875      5.1937      6.7531
 2203.0000      48.8750      2.8975     23.1562      5.6000      7.0938
 2204.0000      49.3594      2.8740     26.0156      4.3938      7.3406
 2205.0000      50.6094      2.8540     29.1250      3.7531      8.4313
 2206.0000      52.1875      2.8753     32.4062      3.8000      9.8063
 2207.0000      54.0156      2.8658     38.0312      4.0687     11.4406
 2208.0000      59.7188      2.8443     57.8594      4.0250     16.7500
 2209.0000      61.9062      2.8209     60.0625      3.8625     17.8375
 2210.0000      58.8438      2.8320     47.3750      3.8156     12.4219
 2211.0000      58.3125      2.8464     42.7344      3.4656      8.5000
 2212.0000      60.6875      2.6416     41.3125      2.6313      6.2750
 2213.0000      63.4375      2.5678     78.3125      2.2406      7.2469
 2214.0000      70.0000      2.6109    105.6094      2.6625     18.5750
 2215.0000      75.2500      2.6661    125.5000      2.9906     23.6281
 2216.0000      77.8438      2.6855    138.6250      3.1781     25.6812
 2217.0000      78.4531      2.6940    140.8281      3.3094     25.6000
 2218.0000      78.7656      2.6943    139.8438      3.4469     24.4813
 2219.0000      79.4062      2.6845    142.1719      3.5656     25.7156
 2220.0000      79.1094      2.6748    145.3281      3.4125     26.0125
 2221.0000      78.9219      2.6776    145.9844      3.2812     25.5938
 2222.0000      78.9531      2.6820    144.9062      3.3375     25.1063
 2223.0000      78.9844      2.6763    142.6719      3.3688     25.2281
 2224.0000      79.4375      2.6676    142.2969      3.2875     26.5406
 2225.0000      79.9375      2.6705    144.0312      3.3281     26.0063
 2226.0000      79.7812      2.6820    144.9219      3.4281     26.6750
 2227.0000      78.9219      2.6811    140.7969      3.4250     27.6063
 2228.0000      75.8438      2.6853    120.5000      3.4844     23.4563
 2229.0000      70.5156      2.6976    110.1562      3.9156     19.3781
 2230.0000      72.0938      2.7083    131.3281      3.8875     23.6594
 2231.0000      79.1562      2.7071    144.1250      3.7438     26.4375
 2232.0000      80.8438      2.6963    144.8281      3.7750     27.7563
 2233.0000      81.2500      2.6870    143.8281      3.7188     28.0719
 2234.0000      81.0000      2.6866    143.9531      3.6250     27.6625
 2235.0000      79.0000      2.6973    141.2812      3.4469     26.6187
 2236.0000      75.2500      2.7110    122.5625      3.9156     25.0344
 2237.0000      71.4219      2.7815    102.0156      6.0125     22.8438
 2238.0000      68.6094      2.8778     88.3125      5.9750     21.3687
 2239.0000      68.0469      2.8708     88.4375      4.9875     22.3656
 2240.0000      67.2969      2.9285     85.4688      5.6031     19.1781
 2241.0000      66.2812      2.8300     93.2500      3.9062     16.9906
 2242.0000      70.0938      2.7319    125.9531      3.4375     22.7719
 2243.0000      78.8594      2.7008    139.4062      3.2563     25.5594
 2244.0000      81.6406      2.7029    141.4375      3.4125     28.0000
 2245.0000      81.8906      2.6981    138.0312      3.3781     27.7125
 2246.0000      79.1719      2.6933    135.0000      3.2000     26.8813
 2247.0000      76.4844      2.6899    134.1094      3.0375     22.9156
 2248.0000      76.5625      2.6849    137.0156      3.1156     22.7313
 2249.0000      77.7031      2.6925    137.8906      3.4781     23.6812
 2250.0000      78.1406      2.7010    135.7031      3.8125     24.0688
 2251.0000      78.0469      2.6821    135.2188      3.6562     23.5969
 2252.0000      77.4062      2.6763    136.0312      3.7094     24.4094
 2253.0000      77.8281      2.6798    135.6094      3.6094     26.0125
 2254.0000      77.7344      2.6810    131.6094      3.4844     25.5156
 2255.0000      73.4062      2.6855    123.3125      3.5063     21.6906
 2256.0000      66.6719      2.7085    101.7188      4.3313     16.5469
 2257.0000      66.2969      2.7584     91.1094      4.8969     19.5844
 2258.0000      66.0000      2.8203     87.4531      5.0969     19.1063
 2259.0000      64.7500      2.7681     87.1875      3.2563     13.2719
 2260.0000      63.7969      2.7090     91.3125      2.9625     14.9375
 2261.0000      64.0312      2.7254     93.2969      3.3344     15.5000
 2262.0000      66.3438      2.7393     99.3906      3.4250     16.1688
 2263.0000      70.5469      2.7371    110.6875      3.2969     20.2875
 2264.0000      72.8906      2.7164    117.7812      3.2594     21.4094
 2265.0000      71.8594      2.6971    117.9062      3.3625     21.3125
 2266.0000      68.1094      2.6956    107.4375      3.2594     18.8000
 2267.0000      66.7812      2.7249     98.2188      3.2125     17.5469
 2268.0000      68.0625      2.7516    103.2500      3.3937     21.5531
 2269.0000      67.1406      2.7424    100.4844      3.6688     18.4188
 2270.0000      61.5312      2.7610     74.5156      3.9281     15.0063
 2271.0000      60.9375      2.7870     81.3906      3.9188     13.7188
 2272.0000      64.1094      2.7744     93.1875      3.5750     18.4594
 2273.0000      67.8906      2.7458     98.6250      3.5312     19.0188
 2274.0000      69.6250      2.7375    107.8438      3.4781     22.0562
 2275.0000      70.6875      2.7333    106.1094      3.6625     22.5438
 2276.0000      65.1562      2.7488     89.5625      4.0312     19.8813
 2277.0000      65.3906      2.7543     86.4219      4.0219     17.5875
 2278.0000      65.4688      2.7426     82.9375      3.9219     17.6469
 2279.0000      60.5000      2.7381     69.1719      4.1500     12.1219
 2280.0000      59.7188      2.7496     71.8750      4.0687      9.3781
 2281.0000      67.5312      2.7354     89.3125      3.5250     18.2719
 2282.0000      68.4531      2.6996     90.2969      3.7062     17.6406
 2283.0000      67.2812      2.7055     88.3750      3.9719     16.1656
 2284.0000      66.7031      2.7044     90.9219      3.6437     16.2531
 2285.0000      68.7969      2.7025     95.7344      3.3813     18.7844
