~VERSION INFORMATION 
VERS.            2.0: LAS LOG ASCII STANDARD VERSION 2.0 
WRAP.             NO: ONE LINE PER DEPTH STEP 
~WELL INFORMATION 
#MNEM.UNIT     DATA                   DESCRIPTION    
#------------------------------------------------
STRT.F      46.0000                    : 
STOP.F    5364.0000                    : 
STEP.F       1.0000                    : 
NULL.       -999.25                    : 
WELL.        J. DONALDSON #1                : WELL NAME       
LONG.        0.0000000                      : LONGITUDE       
LAT.         0.0000000                      : LATITUDE        
SEC.         15                             : SECTION         
STAT.        OH                             : STATE           
TWP.         MILLER                              : TOWNSHIP        
PROJ.        RED #326                       : PROJECT         
DATE.        90/12/17                       : DATE            
OPER.        EDCO DRLG & PROD               : OPERATOR        
ORIG.        KB                             : LOG ORIGIN      
API.         3408323915                     : API             
CMNT1.       API SERIAL # 3-4093-2          : COMMENT 1       
CMNT2.       PERMIT #3915                   : COMMENT 2       
RGE.         1                              : RANGE           
CNTY.        KNOX                           : COUNTY          
LOC.         560'NL & 1056'EL OF SEC 15     : LOCATION DESC   
~TOPS
BIG LIME              1336.00
BASE BIG LIME         2084.00
PACKER SHELL          2170.00
STRAY                 2208.00
TRENTON               3522.00
BLACK RIVER           3678.00
GULL RIVER            4062.00
GLENWOOD              4122.00
TREMPEALEAU           4160.00
LCR                   4364.00
CONASAUGA             4660.00
ROME                  4762.00
MT. SIMON             5132.00
GRANITE               5234.00
~CURVE INFORMATION 
#MNEM.UNIT     API CODE               CURVE DESCRIPTION
#------------------------------------------------------
DEPT.F                                 : 1 DEPTH
DT  .usec/ft                        : 2 SONIC
RHOB.gm/cc                          : 3 DENSITY
GR  .API UNITS                      : 4 GAMMA RAY
PEF .barns/elec                     : 5 PEF
NPHI.%                              : 6 NEUTRON POR
~PARAMETER INFORMATION 
#MNEM.UNIT     VALUE                  DESCRIPTION
#------------------------------------------------
EKB.F        1086.000                 : ELEVATION KB
~A   DEPTH           DT        RHOB          GR         PEF        NPHI
# ...
 4638.0000      52.0156      2.7170     22.8906      2.5844      1.1844
 4639.0000      51.6719      2.7126     26.7812      2.6219      1.4625
 4640.0000      51.7969      2.7004     29.6406      2.5844      1.7563
 4641.0000      52.1562      2.6909     26.6406      2.4562      1.8406
 4642.0000      51.9688      2.6914     23.4531      2.3813      1.5969
 4643.0000      51.5000      2.7061     22.1250      2.3813      1.3687
 4644.0000      51.2812      2.7253     23.6719      2.4375      1.5750
 4645.0000      51.4844      2.6981     28.8750      2.5187      1.8781
 4646.0000      52.2969      2.6634     32.5625      2.4562      1.7188
 4647.0000      54.0156      2.6365     41.2656      2.4469      1.6094
 4648.0000      54.9219      2.6228     56.5312      2.5031      2.1938
 4649.0000      56.1094      2.6026     63.9062      2.4844      3.6031
 4650.0000      58.5625      2.5603     62.5469      2.4906      3.6437
 4651.0000      57.2656      2.5621     57.0781      2.7188      3.1188
 4652.0000      55.3750      2.6129     54.7500      2.7031      3.1375
 4653.0000      55.5938      2.6014     61.6875      2.6750      3.5938
 4654.0000      56.7500      2.5814     69.1094      2.7031      3.8719
 4655.0000      57.4375      2.5613     71.8594      2.7500      3.7625
 4656.0000      57.9844      2.5588     71.0000      2.7406      3.7000
 4657.0000      58.3750      2.5750     73.2188      2.6375      3.8531
 4658.0000      57.6406      2.5518     73.4375      2.5969      3.7594
 4659.0000      56.6562      2.5710     71.9688      2.7031      3.5406
 4660.0000      56.1406      2.5908     69.9219      2.8594      3.4344
 4661.0000      55.8125      2.5918     67.4375      2.9094      3.0187
 4662.0000      54.3438      2.6159     65.3125      2.8906      2.4313
 4663.0000      53.2656      2.6671     65.7969      2.8000      2.0187
 4664.0000      53.0781      2.6981     69.6406      2.7719      2.2062
 4665.0000      53.6094      2.6798     69.9375      2.7656      2.4250
 4666.0000      53.4531      2.6716     65.9375      2.7375      2.1750
 4667.0000      52.7188      2.6948     67.0000      2.7188      2.4719
 4668.0000      54.3750      2.6449     77.1562      2.8250      3.8156
 4669.0000      56.4375      2.5516     85.9375      2.9906      3.6500
 4670.0000      55.4375      2.5621     85.5781      3.1188      2.3531
 4671.0000      53.4062      2.6189     92.1719      3.1031      1.3500
 4672.0000      52.7969      2.6624    110.7031      3.1500      0.6281
 4673.0000      53.0469      2.6563    122.5938      3.2000      0.5625
 4674.0000      53.1719      2.6406    120.7500      3.1406      0.8063
 4675.0000      52.5156      2.6705    112.6406      3.0625      0.7063
 4676.0000      51.3906      2.7236     91.8750      3.1281      0.4437
 4677.0000      50.2188      2.7475     79.0938      3.1063      0.2938
 4678.0000      49.3438      2.7553     74.7031      2.9813      0.3125
 4679.0000      48.9688      2.7645     73.1875      2.9219      0.2438
 4680.0000      49.0000      2.7654     81.3438      2.9938      0.1594
 4681.0000      49.6094      2.7458    109.2969      3.0844      0.2250
 4682.0000      50.8125      2.7148    120.3125      3.2062      0.3281
 4683.0000      51.8594      2.7001    122.2969      3.2000      0.5281
 4684.0000      52.2656      2.6690    121.4375      3.0844      0.7312
 4685.0000      52.8438      2.6558    123.9688      3.0125      0.9313
 4686.0000      54.0625      2.6361    129.5938      3.0719      1.1063
 4687.0000      54.5156      2.6224    129.7344      3.1375      1.2563
 4688.0000      54.2031      2.6331    128.5469      3.0938      1.3656
 4689.0000      54.1719      2.6493    131.9062      2.9875      1.3969
 4690.0000      54.0781      2.6568    129.1094      3.0031      1.3719
 4691.0000      53.6406      2.6590    122.3281      3.1156      1.3219
 4692.0000      53.5000      2.6641    123.8125      3.2938      1.1500
 4693.0000      53.3438      2.6578    129.8125      3.2781      0.9313
 4694.0000      52.9688      2.6601    130.6250      3.1719      0.6938
 4695.0000      52.4219      2.6738    122.7812      3.0594      0.5094
 4696.0000      51.7656      2.6853    114.6562      3.0469      0.3844
 4697.0000      51.1094      2.6925    108.6250      3.2281      0.3375
 4698.0000      50.5625      2.7025    101.1250      3.1844      0.3438
 4699.0000      50.3125      2.7103     96.2656      3.0844      0.3906
 4700.0000      50.0469      2.7129     97.1875      3.0031      0.4531
 4701.0000      49.6094      2.7430     90.0156      2.9531      0.5500
 4702.0000      49.0781      2.7601     85.1875      2.9969      0.5969
 4703.0000      48.3906      2.7844     78.0938      3.0719      0.5688
 4704.0000      46.0312      2.8053     77.7344      3.1688      0.5406
 4705.0000      38.6250      2.7703     92.5781      3.3781      0.5750
 4706.0000      46.9375      2.7408     97.6719      3.3813      0.6656
 4707.0000      50.3281      2.7285     93.6719      3.2469      0.8656
 4708.0000      50.3438      2.7259     87.8594      3.2219      1.2281
 4709.0000      50.1562      2.7404     81.8281      3.2406      1.1156
 4710.0000      49.3594      2.7678     77.3594      3.2406      0.8063
 4711.0000      48.7500      2.7701     77.1719      3.3531      0.5563
 4712.0000      48.9375      2.7496     81.9844      3.2313      0.7563
 4713.0000      49.1406      2.7518     82.0625      3.0625      1.2406
 4714.0000      49.6094      2.7788     62.3125      3.0625      2.1844
 4715.0000      50.3750      2.8091     48.5625      3.2313      4.7406
 4716.0000      51.3281      2.8144     49.7812      3.1531      4.0563
 4717.0000      52.7188      2.7210     69.6562      2.9188      2.9500
 4718.0000      55.1406      2.6555     75.3438      2.8688      2.7531
 4719.0000      56.1875      2.6169     77.0000      2.8937      2.8719
 4720.0000      57.2344      2.5754     82.7969      2.7938      3.2812
 4721.0000      61.6719      2.5261     90.0625      2.6281      4.2063
 4722.0000      61.5781      2.5341     75.9375      2.5656      3.8312
 4723.0000      57.2344      2.6136     61.8906      2.5906      3.0438
 4724.0000      54.3750      2.6539     56.1250      2.6594      2.7375
 4725.0000      54.7500      2.6450     59.7344      2.7313      2.8031
 4726.0000      55.9844      2.6305     70.6562      2.8781      3.1469
 4727.0000      57.9375      2.5834     86.2188      2.8063      3.6531
 4728.0000      60.5312      2.5419     91.8594      2.7125      3.9719
 4729.0000      60.9375      2.5353     88.0938      2.7687      3.6156
 4730.0000      60.0625      2.5578     82.2344      2.8875      2.9094
 4731.0000      58.5469      2.5750     81.4688      2.7875      2.8125
 4732.0000      57.9062      2.5906     82.7812      2.8063      3.5688
 4733.0000      58.1719      2.5451     91.5625      2.7875      4.7938
 4734.0000      62.3438      2.4146    102.0938      2.4469      5.3469
 4735.0000      65.9844      2.4488    102.7031      2.6188      4.7125
 4736.0000      63.3594      2.5174    105.5469      2.8375      4.4531
 4737.0000      59.7969      2.5280    104.3438      2.8375      4.2063
 4738.0000      60.1562      2.5238    104.3594      2.8688      3.6969
 4739.0000      60.2031      2.5193    104.3906      2.9125      3.0187
 4740.0000      58.7812      2.5478    111.5156      2.9625      2.4094
 4741.0000      57.6094      2.5758    123.0000      3.0656      2.2563
 4742.0000      57.1875      2.5913    123.2812      3.1938      2.4688
 4743.0000      57.1719      2.5834    114.9531      3.1625      2.4719
 4744.0000      56.3594      2.5893    102.6250      3.1406      2.1562
 4745.0000      53.7969      2.6339     88.6875      3.1875      1.7437
 4746.0000      53.5938      2.6721     88.8438      3.0938      1.8750
 4747.0000      54.5000      2.6335     95.9844      2.9438      2.2938
 4748.0000      56.8438      2.5750    104.0000      2.8969      2.4031
 4749.0000      57.5625      2.5549    111.2656      2.8969      2.1375
