~VERSION INFORMATION 
VERS.            2.0: LAS LOG ASCII STANDARD VERSION 2.0 
WRAP.             NO: ONE LINE PER DEPTH STEP 
~WELL INFORMATION 
#MNEM.UNIT     DATA                   DESCRIPTION    
#------------------------------------------------
STRT.F      46.0000                    : 
STOP.F    5364.0000                    : 
STEP.F       1.0000                    : 
NULL.       -999.25                    : 
WELL.        J. DONALDSON #1                : WELL NAME       
LONG.        0.0000000                      : LONGITUDE       
LAT.         0.0000000                      : LATITUDE        
SEC.         15                             : SECTION         
STAT.        OH                             : STATE           
TWP.         MILLER                              : TOWNSHIP        
PROJ.        RED #326                       : PROJECT         
DATE.        90/12/17                       : DATE            
OPER.        EDCO DRLG & PROD               : OPERATOR        
ORIG.        KB                             : LOG ORIGIN      
API.         3408323915                     : API             
CMNT1.       API SERIAL # 3-4093-2          : COMMENT 1       
CMNT2.       PERMIT #3915                   : COMMENT 2       
RGE.         1                              : RANGE           
CNTY.        KNOX                           : COUNTY          
LOC.         560'NL & 1056'EL OF SEC 15     : LOCATION DESC   
~TOPS
BIG LIME              1336.00
BASE BIG LIME         2084.00
PACKER SHELL          2170.00
STRAY                 2208.00
TRENTON               3522.00
BLACK RIVER           3678.00
GULL RIVER            4062.00
GLENWOOD              4122.00
TREMPEALEAU           4160.00
LCR                   4364.00
CONASAUGA             4660.00
ROME                  4762.00
MT. SIMON             5132.00
GRANITE               5234.00
~CURVE INFORMATION 
#MNEM.UNIT     API CODE               CURVE DESCRIPTION
#------------------------------------------------------
DEPT.F                                 : 1 DEPTH
DT  .usec/ft                        : 2 SONIC
RHOB.gm/cc                          : 3 DENSITY
GR  .API UNITS                      : 4 GAMMA RAY
PEF .barns/elec                     : 5 PEF
NPHI.%                              : 6 NEUTRON POR
~PARAMETER INFORMATION 
#MNEM.UNIT     VALUE                  DESCRIPTION
#------------------------------------------------
EKB.F        1086.000                 : ELEVATION KB
~A   DEPTH           DT        RHOB          GR         PEF        NPHI
# ...
 3630.0000      48.7656      2.7568     16.9062      4.1844      0.6875
 3631.0000      48.5312      2.7568     18.2344      4.3781      0.8625
 3632.0000      48.0781      2.7528     17.3594      4.8531      1.0250
 3633.0000      48.1719      2.7360     15.3281      5.0750      0.9250
 3634.0000      48.6406      2.7269     14.4062      4.4750      0.6625
 3635.0000      49.6875      2.7374     14.9531      4.3313      0.6500
 3636.0000      50.5156      2.7438     16.6562      4.6875      1.0656
 3637.0000      49.8906      2.7426     19.7188      5.0938      1.4625
 3638.0000      48.5156      2.7378     22.3125      4.9969      1.6250
 3639.0000      47.7500      2.7360     19.3906      4.7906      1.3438
 3640.0000      47.7188      2.7406     16.0156      4.6281      0.5031
 3641.0000      48.0625      2.7330     14.5312      5.1844      0.1187
 3642.0000      48.6562      2.7164     14.7500      5.2156      0.0969
 3643.0000      49.1094      2.7118     16.0781      4.7781      0.1875
 3644.0000      49.1406      2.7156     18.4219      4.4781      0.4594
 3645.0000      49.4062      2.7218     20.5000      4.3906      0.8125
 3646.0000      50.7188      2.7214     20.2656      4.3594      1.0031
 3647.0000      51.0938      2.7231     20.8906      4.3750      1.1313
 3648.0000      49.3281      2.7315     30.5312      4.5500      2.3281
 3649.0000      47.4219      2.7325     26.6562      4.6906      1.7219
 3650.0000      47.1875      2.7240     20.9844      4.9250      0.8688
 3651.0000      47.5625      2.7175     16.4375      5.1000      0.2844
 3652.0000      48.1094      2.7150     14.6562      4.9313      0.0563
 3653.0000      48.6875      2.7198     15.9375      4.8344      0.3156
 3654.0000      48.9844      2.7260     17.5469      4.8406      0.5906
 3655.0000      48.6875      2.7291     19.0469      4.8906      0.7219
 3656.0000      48.0469      2.7359     19.8750      5.1312      0.6687
 3657.0000      48.3438      2.7306     18.6406      5.1562      0.4969
 3658.0000      49.5781      2.7370     16.6406      4.9813      0.3063
 3659.0000      51.4375      2.7414     17.0625      4.8375      0.5250
 3660.0000      53.2656      2.7368     24.2812      4.6125      1.3344
 3661.0000      54.3750      2.7343     33.0000      4.3531      3.9438
 3662.0000      54.2344      2.7293     37.0938      4.1719      5.5813
 3663.0000      53.4062      2.7330     40.0000      4.0219      5.8000
 3664.0000      52.4531      2.7374     39.5469      4.0250      5.2844
 3665.0000      52.1875      2.7353     36.1250      4.1719      4.3406
 3666.0000      52.7500      2.7420     33.7344      4.4125      3.6000
 3667.0000      53.4844      2.7333     33.5000      4.4781      3.8906
 3668.0000      53.9219      2.7244     36.7344      4.5469      4.2406
 3669.0000      54.2500      2.7240     40.6562      4.6375      4.6625
 3670.0000      54.3750      2.7251     43.0312      4.6219      5.3219
 3671.0000      54.1250      2.7255     42.3594      4.4906      5.8938
 3672.0000      53.9844      2.7290     40.8750      4.4813      5.9406
 3673.0000      54.4531      2.7326     40.4062      4.4656      5.4781
 3674.0000      54.6094      2.7318     37.7656      4.4062      5.3344
 3675.0000      53.4844      2.7321     28.8281      4.1937      5.8812
 3676.0000      51.1719      2.7386     24.0625      3.8844      7.3313
 3677.0000      49.4219      2.7488     22.1875      3.9250      6.7094
 3678.0000      48.8906      2.7448     22.0312      4.3688      3.9562
 3679.0000      48.2969      2.7380     21.0938      5.1562      2.1188
 3680.0000      47.8594      2.7288     20.6094      5.2156      1.3687
 3681.0000      47.9844      2.7240     21.2969      5.1438      0.8250
 3682.0000      48.8594      2.7220     21.7344      5.1656      0.5125
 3683.0000      49.7188      2.7211     21.1094      5.0281      0.5656
 3684.0000      49.9844      2.7269     18.4375      4.5625      0.8813
 3685.0000      49.5156      2.7341     16.5469      4.4375      1.3406
 3686.0000      48.4531      2.7415     17.1875      4.6188      1.6562
 3687.0000      48.1875      2.7459     19.3750      4.3187      1.3438
 3688.0000      48.9531      2.7456     19.6094      4.3938      0.7219
 3689.0000      49.0000      2.7381     18.4375      4.6094      0.5625
 3690.0000      48.0781      2.7313     20.1562      4.7469      0.9281
 3691.0000      48.0000      2.7374     21.6094      4.8500      1.2219
 3692.0000      48.3594      2.7326     21.0938      4.9031      0.6562
 3693.0000      47.5781      2.7258     19.0312      4.8469      0.6344
 3694.0000      47.0000      2.7240     18.7812      4.7219      0.7563
 3695.0000      46.9375      2.7263     19.7188      4.7906      0.5625
 3696.0000      46.9844      2.7234     20.6875      5.0969      0.1688
 3697.0000      46.9844      2.7189     20.2812      5.2031     -0.0281
 3698.0000      46.7969      2.7255     19.0938      4.9375     -0.0625
 3699.0000      46.6562      2.7283     17.4844      4.9813     -0.0250
 3700.0000      46.5469      2.7294     16.3594      5.1469      0.0125
 3701.0000      46.4844      2.7150     17.2500      4.9844      0.0563
 3702.0000      46.5000      2.7100     18.1250      4.8750      0.0625
 3703.0000      46.7656      2.7163     17.7031      5.0750      0.0500
 3704.0000      47.0469      2.7184     16.7969      5.4281      0.0312
 3705.0000      47.2969      2.7199     16.5938      5.1844      0.0063
 3706.0000      47.4062      2.7298     16.8906      4.7063     -0.0250
 3707.0000      47.4688      2.7333     17.6562      4.7188     -0.0406
 3708.0000      47.3438      2.7284     18.4531      4.8625     -0.0844
 3709.0000      47.2188      2.7246     18.6406      4.8344     -0.1156
 3710.0000      47.1094      2.7338     18.6719      4.7250     -0.1344
 3711.0000      47.1719      2.7461     19.5781      4.8219     -0.1406
 3712.0000      47.5156      2.7418     22.0938      5.0062     -0.1406
 3713.0000      47.8594      2.7358     25.2812      5.0563     -0.1437
 3714.0000      47.9531      2.7318     21.2031      5.1406     -0.1313
 3715.0000      47.6250      2.7318     19.0312      5.4656     -0.1281
 3716.0000      47.4062      2.7193     18.6406      5.0969     -0.1281
 3717.0000      47.3906      2.7059     18.8125      4.7750     -0.1406
 3718.0000      47.5781      2.7209     18.8281      4.6844     -0.1125
 3719.0000      47.7812      2.7366     18.6406      4.8500     -0.0437
 3720.0000      47.9219      2.7488     18.2500      4.6063      0.0437
 3721.0000      48.1875      2.7514     17.6875      4.3406      0.1094
 3722.0000      48.2188      2.7451     17.2188      4.3719      0.1688
 3723.0000      48.2031      2.7420     16.8750      4.6219      0.1813
 3724.0000      48.1094      2.7393     16.5312      4.8812      0.1688
 3725.0000      48.0000      2.7359     16.4375      5.0687      0.1375
 3726.0000      47.6875      2.7339     16.7031      5.2531      0.0844
 3727.0000      47.3750      2.7319     17.2031      5.1719      0.0469
 3728.0000      47.5469      2.7293     17.6250      5.1063      0.0563
 3729.0000      48.0625      2.7279     19.0781      5.0156      0.1187
 3730.0000      48.7188      2.7341     20.9062      4.9969      0.1844
 3731.0000      48.7188      2.7339     21.9531      4.9094      0.2469
 3732.0000      48.4688      2.7249     21.1250      4.9344      0.3031
 3733.0000      48.0781      2.7215     16.6406      4.9969      0.3469
 3734.0000      47.8281      2.7121     15.6562      4.8969      0.3500
 3735.0000      48.1719      2.7056     18.9375      4.5094      0.3469
 3736.0000      48.7969      2.7358     23.0156      4.7375      0.2688
 3737.0000      49.3438      2.7399     24.0000      4.9219      0.2219
 3738.0000      49.2969      2.7364     22.4062      4.6281      0.3281
 3739.0000      49.0469      2.7263     20.3750      4.6562      0.4531
 3740.0000      48.8594      2.7168     19.2188      4.7750      0.4969
 3741.0000      48.5625      2.7201     17.7969      4.8531      0.5031
