#------------------------------------------------------------------------------
#
#   Created by  : [OpenWorks] Log Export Utility (LEXP)
#   Created on  : 2003-07-22 09:27:56
#   Project     : AAPG_DAN
#   User        : DAK
#   Interpreter : DAK1
#
#------------------------------------------------------------------------------
~VERSION INFORMATION
VERS. 2.0 : CWLS Log ASCII Standard - version 2.0
WRAP.  NO : One line per depth step
~WELL INFORMATION
#MNEMONIC   .UNIT                                           VALUE :DESCRIPTION
#------------------------------------------------------------------------------
STRT        .FT                                        16250.0000 :START DEPTH
STOP        .FT                                        16480.0000 :STOP DEPTH
STEP        .FT                                            0.5000 :STEP
NULL        .                                           -999.2500 :NULL VALUE
COMP        .                                        Asquith AAPG :COMPANY
WELL        .                                          Case Study :WELL
FLD         .                                             UNKNOWN :FIELD
LOC         .                                             UNKNOWN :LOCATION
CNTY        .                                             UNKNOWN :COUNTY
STAT        .                                             UNKNOWN :STATE
CTRY        .                                             UNKNOWN :COUNTRY
SRVC        .                                             UNKNOWN :SERVICE COMPANY
DATE        .                                             UNKNOWN :LOG DATE
UWI         .                                        Case Study 6 :UNIQUE WELL ID
XCOORD      .                                            0.000000 :SURFACE X
YCOORD      .                                            0.000000 :SURFACE Y
LAT         .                                            3.442337 :LATITUDE
LON         .                                         -105.983204 :LONGITUDE
ELEV        .FT                                       -98765.0000 :SURFACE ELEV
ELEV_TYPE   .                                                  NA :ELEV TYPE
~CURVE INFORMATION
#MNEMONIC.UNIT        API CODE       : CURVE DESCRIPTION
#------------------------------------------------------------------------------
DEPTH    .FT                         : Measured Depth
CALI     .inches      UNKNOWN        : CALI:CDL/DSN/GR:r1:MAIN:v1 
DPHI     .v/v_decimal UNKNOWN        : DPHI:CDL/DSN/GR:r1:MAIN:v1 
DRHO     .g/cm3       UNKNOWN        : DRHO:CDL/DSN/GR:r1:MAIN:v1 
GR       .API         UNKNOWN        : GR:CDL/DSN/GR:r1:MAIN:v1 
ILD      .ohm.m       UNKNOWN        : ILD:DIL/SP:r1:MAIN:v1 
ILM      .ohm.m       UNKNOWN        : ILM:DIL/SP:r1:MAIN:v1 
NPHI     .v/v_decimal UNKNOWN        : NPHI:CDL/DSN/GR:r1:MAIN:v1 
SFL      .ohm.m       UNKNOWN        : SFL:DIL/SP:r1:MAIN:v1 
SP       .mV          UNKNOWN        : SP:DIL/SP:r1:MAIN:v1 
~A     DEPTH         CALI         DPHI         DRHO           GR          ILD          ILM         NPHI          SFL           SP
# ...
  16281.0000       8.9700       0.0187       0.0380      39.2400     550.2320     300.9320       0.0150     687.6940     -34.4830
  16281.5000       8.9700       0.0152       0.0350      40.4650     550.2320     339.5230       0.0170     674.9250     -35.6580
  16282.0000       8.9700       0.0164       0.0290      41.9610     560.5450     436.2730       0.0190     700.4620     -36.5680
  16282.5000       8.9700       0.0222       0.0250      43.7410     571.0510     456.9840       0.0190     740.5910     -38.1020
  16283.0000       8.9700       0.0269       0.0230      44.7670     587.2060     448.5760       0.0200     805.1700     -38.4960
  16283.5000       8.9700       0.0292       0.0310      44.4750     592.6580     379.5380       0.0200     875.3040     -39.4280
  16284.0000       8.9700       0.0275       0.0460      42.4710     615.0820     324.1350       0.0200     934.1220     -39.8490
  16284.5000       8.9690       0.0257       0.0500      39.9230     626.6110     333.2760       0.0180     996.8060     -40.2930
  16285.0000       8.9700       0.0263       0.0500      37.8040     638.3550     372.6200       0.0160    1083.7260     -41.3490
  16285.5000       8.9710       0.0246       0.0390      35.8740     650.3190     416.4650       0.0130    1200.2061     -42.2360
  16286.0000       8.9610       0.0251       0.0300      34.6610     662.5080     474.6020       0.0110    1178.3280     -42.1920
  16286.5000       8.9240       0.0287       0.0240      34.1660     674.9250     560.5450       0.0100    1015.4890     -43.4310
  16287.0000       8.9280       0.0357       0.0150      35.3770     674.9250     681.2500       0.0100     875.3040     -43.6390
  16287.5000       8.9300       0.0398       0.0110      39.2650     674.9250     713.5910       0.0100     891.7100     -44.4010
  16288.0000       8.8950       0.0374       0.0020      42.9700     674.9250     761.5420       0.0120     978.6360     -44.6310
  16288.5000       8.8840       0.0158       0.0030      45.4900     662.5080     797.6940       0.0140    1053.9120     -46.3990
  16289.0000       8.8760       0.0105       0.0130      40.6540     662.5080     797.6940       0.0140    1034.5220     -47.0780
  16289.5000       8.8390       0.0053       0.0210      49.1760     662.5080     797.6940       0.0160     960.4650     -47.7420
  16290.0000       8.8350       0.0023       0.0330      64.8870     668.7170     676.7880       0.0170     891.8640     -48.1530
  16290.5000       8.7940       0.0012       0.0620      45.1960     674.9250     492.2200       0.0170     827.8760     -49.3180
  16291.0000       8.8020       0.0035       0.0680      38.9100     687.5750     492.2200       0.0150     797.6940     -50.0200
  16291.5000       8.7980       0.0158       0.0710      36.9480     700.4620     550.2320       0.0140     783.0180     -51.4000
  16292.0000       8.8000       0.0275       0.0490      36.4550     700.4620     603.7660       0.0120     827.8760     -52.1740
  16292.5000       8.8000       0.0228       0.0390      38.7780     700.4620     726.9660       0.0110     960.4650     -53.2240
  16293.0000       8.7900       0.0070       0.0320      41.8900     700.4620     768.6120       0.0100    1200.2061     -54.3570
  16293.5000       8.7520       0.0023       0.0300      43.2110     696.2740     783.0180       0.0100    1341.6610     -55.3380
  16294.0000       8.7590      -0.0006       0.0280      40.7550     674.9250     783.0180       0.0100    1268.9640     -57.5750
  16294.5000       8.7560      -0.0006       0.0240      38.4540     671.5110     768.6120       0.0100     924.2350     -57.7910
  16295.0000       8.7480      -0.0029       0.0150      37.1330     650.3190     740.5910       0.0090     812.6450     -57.9560
  16295.5000       8.7100      -0.0053       0.0110      38.1450     626.6110     713.5910       0.0090     754.4720     -58.6780
  16296.0000       8.6990      -0.0058       0.0060      39.6730     615.0820     713.5910       0.0100     768.6120     -58.9190
  16296.5000       8.6340      -0.0076       0.0030      39.7990     603.7660     783.0180       0.0110     812.6450     -60.5680
  16297.0000       8.6250      -0.0094       0.0040      38.2080     603.7660     996.8060       0.0090     891.7100     -62.0280
  16297.5000       8.5870      -0.0123       0.0070      35.7000     615.0820    1114.2889       0.0090     960.4650     -63.1590
  16298.0000       8.5870      -0.0158       0.0130      34.0180     615.0820    1418.5229       0.0090     942.7950     -64.2230
  16298.5000       8.5840      -0.0187       0.0190      33.9620     615.0820    1527.8990       0.0100     859.2000     -64.9530
  16299.0000       8.5890      -0.0211       0.0230      35.4550     615.0820     550.2320       0.0110     875.3040     -66.3900
  16299.5000       8.5810      -0.0216       0.0290      36.7400     603.7660     520.4180       0.0100     919.2770     -66.6210
  16300.0000       8.6210      -0.0199       0.0340      36.9820     598.2120     515.6310       0.0110     908.5790     -68.0110
  16300.5000       8.6260      -0.0181       0.0340      36.0240     581.7540     510.8440       0.0110     726.9660     -69.2570
  16301.0000       8.6640      -0.0140       0.0320      35.1860     560.5450     520.4180       0.0100     650.3190     -70.6490
  16301.5000       8.7130      -0.0175       0.0300      33.3590     540.1090     615.0820       0.0100     662.5080     -72.4060
  16302.0000       8.7100      -0.0199       0.0280      33.8940     530.1720     674.9250       0.0100     700.4620     -73.2430
  16302.5000       8.7190      -0.0187       0.0280      31.6470     550.2320     740.5910       0.0110     875.3040     -74.6790
  16303.0000       8.6710      -0.0088       0.0300      29.1060     550.2320     740.5910       0.0150    1292.7480     -76.2850
  16303.5000       8.6050      -0.0029       0.0350      25.8900     571.0510     754.4720       0.0180    1135.1740     -77.4330
  16304.0000       8.4580      -0.0000       0.0360      22.1830     592.6580     768.6120       0.0220     662.5080     -78.0140
  16304.5000       8.3740       0.0006       0.0690      20.4380     615.0820     859.2000       0.0290     638.3550     -78.7840
  16305.0000       8.2840       0.0035       0.0860      18.2780     615.0820     891.7100       0.0360     638.3550     -80.6730
  16305.5000       8.2090       0.0111       0.1060      16.6900     615.0820     908.4230       0.0410     638.3550     -81.8340
  16306.0000       8.1930       0.0181       0.1100      16.2850     603.7660     638.3550       0.0470     650.3190     -83.0270
  16306.5000       8.1440       0.0222       0.1120      16.7320     581.7540     510.8440       0.0530     650.3190     -83.8980
  16307.0000       8.1170       0.0287       0.1130      16.8280     571.0510     424.2710       0.0560     674.9250     -84.5770
  16307.5000       8.0960       0.0357       0.1130      18.7440     560.5450     424.2710       0.0640     700.4620     -85.8520
  16308.0000       8.0690       0.0386       0.1130      18.6560     560.5450     448.5760       0.0660     674.9250     -86.6380
  16308.5000       8.0720       0.0380       0.1130      20.5560     550.2320     474.2750       0.0670     650.3190     -87.8930
  16309.0000       8.0320       0.0269       0.1140      21.5620     560.5450     492.2200       0.0660     581.7540     -88.8030
  16309.5000       8.0310       0.0129       0.1220      22.0740     571.0510     448.5760       0.0620     550.2320     -89.5910
  16310.0000       8.0300       0.0070       0.1480      22.1030     581.7540     383.0950       0.0600     525.2950     -89.8720
  16310.5000       8.0300       0.0047       0.1630      22.5760     581.7540     827.8760       0.0620     520.4180     -91.0020
  16311.0000       8.0300       0.0135       0.1560      22.5180     581.7540     942.7950       0.0640     530.1720     -91.6760
  16311.5000       8.0300       0.0298       0.1290      21.7290     571.0510     925.4490       0.0650     550.2320     -92.7990
