#------------------------------------------------------------------------------
#
#   Created by  : [OpenWorks] Log Export Utility (LEXP)
#   Created on  : 2003-07-22 09:28:06
#   Project     : AAPG_DAN
#   User        : DAK
#   Interpreter : DAK1
#
#------------------------------------------------------------------------------
~VERSION INFORMATION
VERS. 2.0 : CWLS Log ASCII Standard - version 2.0
WRAP.  NO : One line per depth step
~WELL INFORMATION
#MNEMONIC   .UNIT                                           VALUE :DESCRIPTION
#------------------------------------------------------------------------------
STRT        .FT                                         6750.0000 :START DEPTH
STOP        .FT                                         6850.0000 :STOP DEPTH
STEP        .FT                                            0.5000 :STEP
NULL        .                                           -999.2500 :NULL VALUE
COMP        .                                        Asquith AAPG :COMPANY
WELL        .                                          Case Study :WELL
FLD         .                                             UNKNOWN :FIELD
LOC         .                                             UNKNOWN :LOCATION
CNTY        .                                             UNKNOWN :COUNTY
STAT        .                                             UNKNOWN :STATE
CTRY        .                                             UNKNOWN :COUNTRY
SRVC        .                                             UNKNOWN :SERVICE COMPANY
DATE        .                                             UNKNOWN :LOG DATE
UWI         .                                        Case Study 7 :UNIQUE WELL ID
XCOORD      .                                            0.000000 :SURFACE X
YCOORD      .                                            0.000000 :SURFACE Y
LAT         .                                            3.442337 :LATITUDE
LON         .                                         -105.983204 :LONGITUDE
ELEV        .FT                                       -98765.0000 :SURFACE ELEV
ELEV_TYPE   .                                                  NA :ELEV TYPE
~CURVE INFORMATION
#MNEMONIC.UNIT        API CODE       : CURVE DESCRIPTION
#------------------------------------------------------------------------------
DEPTH    .FT                         : Measured Depth
GR       .API         UNKNOWN        : GR:CDL/DSN/GR:r1:MAIN:v1 
GR       .API         UNKNOWN        : GR:DLL/GR:r1:MAIN:v1 
LLD      .ohm.m       UNKNOWN        : LLD:DLL/GR:r1:MAIN:v1 
LLS      .ohm.m       UNKNOWN        : LLS:DLL/GR:r1:MAIN:v1 
MSFL     .ohm.m       UNKNOWN        : MSFL:DLL/GR:r1:MAIN:v1 
Pe       .b/elec      UNKNOWN        : Pe:CDL/DSN/GR:r1:MAIN:v1 
PHID     .v/v_decimal UNKNOWN        : PHID:CDL/DSN/GR:r1:MAIN:v1 
PHIN     .v/v_decimal UNKNOWN        : PHIN:CDL/DSN/GR:r1:MAIN:v1 
~A     DEPTH           GR           GR          LLD          LLS         MSFL           Pe         PHID         PHIN
   6750.0000      78.3900      78.3900      53.6050      49.9970       7.3240       4.6610       0.0825    -999.2500
   6750.5000      91.4570      91.4570     689.9920     514.0185     571.0750       4.8420       0.0521    -999.2500
   6751.0000     104.5240     104.5240    1326.3790     978.0400    1134.8260       5.0230       0.0217       0.0384
   6751.5000     116.1330     116.1330    1433.6670    1222.0305    1213.8781       5.1735       0.0151       0.0224
   6752.0000     127.7420     127.7420    1540.9550    1466.0210    1292.9301       5.3240       0.0085       0.0063
   6752.5000     130.4025     130.4025    1450.1450    1336.3545    1028.8740       5.2995       0.0146       0.0067
   6753.0000     133.0630     133.0630    1359.3350    1206.6880     764.8180       5.2750       0.0207       0.0071
   6753.5000     125.1425     125.1425    1164.7500     999.2000     471.7015       5.1535       0.0278       0.0078
   6754.0000     117.2220     117.2220     970.1650     791.7120     178.5850       5.0320       0.0349       0.0084
   6754.5000     116.0780     116.0780    1032.0215     750.8380     186.0215       4.9020       0.0393       0.0087
   6755.0000     114.9340     114.9340    1093.8781     709.9640     193.4580       4.7720       0.0436       0.0090
   6755.5000     116.7180     116.7180    1306.9436    1108.2765     399.2440       4.7390       0.0289       0.0086
   6756.0000     118.5020     118.5020    1520.0090    1506.5890     605.0300       4.7060       0.0142       0.0082
   6756.5000     113.7035     113.7035    1301.9720    1573.3364     991.5150       4.8075       0.0140       0.0084
   6757.0000     108.9050     108.9050    1083.9351    1640.0840    1378.0000       4.9090       0.0137       0.0086
   6757.5000     104.8525     104.8525     778.2340    1033.3435     773.0085       5.0545       0.0299       0.0180
   6758.0000     100.8000     100.8000     472.5330     426.6030     168.0170       5.2000       0.0461       0.0274
   6758.5000      96.4300      96.4300     347.4065     313.1060     118.9790       5.1805       0.0856       0.0325
   6759.0000      92.0600      92.0600     222.2800     199.6090      69.9410       5.1610       0.1250       0.0376
   6759.5000      86.8600      86.8600     193.6085     174.3960      73.9140       5.0865       0.1307       0.0436
   6760.0000      81.6600      81.6600     164.9370     149.1830      77.8870       5.0120       0.1363       0.0496
   6760.5000      70.1125      70.1125     150.6990     123.5250      57.7585       4.9415       0.1321       0.0535
   6761.0000      58.5650      58.5650     136.4610      97.8670      37.6300       4.8710       0.1279       0.0573
   6761.5000      53.5080      53.5080     127.7535      92.4040      32.9340       4.7885       0.1248       0.0588
   6762.0000      48.4510      48.4510     119.0460      86.9410      28.2380       4.7060       0.1217       0.0603
   6762.5000      44.4615      44.4615     134.7760      94.3440      30.1380       4.6520       0.1187       0.0618
   6763.0000      40.4720      40.4720     150.5060     101.7470      32.0380       4.5980       0.1156       0.0634
   6763.5000      36.7270      36.7270     174.7560     114.6300      36.8325       4.6005       0.1207       0.0638
   6764.0000      32.9820      32.9820     199.0060     127.5130      41.6270       4.6030       0.1258       0.0642
   6764.5000      30.9960      30.9960     197.0430     132.4975      52.7255       4.6400       0.1401       0.0728
   6765.0000      29.0100      29.0100     195.0800     137.4820      63.8240       4.6770       0.1544       0.0815
   6765.5000      29.4880      29.4880     174.5730     129.8205      52.8275       4.7715       0.1822       0.0957
   6766.0000      29.9660      29.9660     154.0660     122.1590      41.8310       4.8660       0.2101       0.1099
   6766.5000      31.2725      31.2725     143.6335     111.3085      34.0975       4.9090       0.2205       0.1168
   6767.0000      32.5790      32.5790     133.2010     100.4580      26.3640       4.9520       0.2309       0.1236
   6767.5000      30.9160      30.9160     132.0390      97.7295      31.0075       4.9020       0.2317       0.1198
   6768.0000      29.2530      29.2530     130.8770      95.0010      35.6510       4.8520       0.2325       0.1160
   6768.5000      27.7370      27.7370     135.6970      94.9110      32.5315       4.7745       0.2334       0.1122
   6769.0000      26.2210      26.2210     140.5170      94.8210      29.4120       4.6970       0.2342       0.1084
   6769.5000      25.6590      25.6590     151.2590     105.2305      27.0450       4.6170       0.2005       0.0959
   6770.0000      25.0970      25.0970     162.0010     115.6400      24.6780       4.5370       0.1668       0.0834
   6770.5000      30.0780      30.0780     255.3505     147.6865      33.4415       4.5890       0.1148       0.0755
   6771.0000      35.0590      35.0590     348.7000     179.7330      42.2050       4.6410       0.0628       0.0676
   6771.5000      72.9260      72.9260     878.1219     404.1635     481.8480       4.8650       0.0473       0.0544
   6772.0000     110.7930     110.7930    1407.5439     628.5940     921.4910       5.0890       0.0317       0.0413
   6772.5000     104.6925     104.6925    1406.1665    1068.8464    1164.0756       4.9530       0.0288       0.0350
   6773.0000      98.5920      98.5920    1404.7889    1509.0990    1406.6600       4.8170       0.0259       0.0288
   6773.5000      90.6600      90.6600     905.7745    1115.6425    1032.1395       4.6720       0.0237       0.0210
   6774.0000      82.7280      82.7280     406.7600     722.1860     657.6190       4.5270       0.0215       0.0133
   6774.5000      77.7485      77.7485     307.3835     500.4485     372.1870       4.5070       0.0190       0.0103
   6775.0000      72.7690      72.7690     208.0070     278.7110      86.7550       4.4870       0.0165       0.0074
   6775.5000      68.4085      68.4085     640.6395     254.7955     448.7835       4.5660       0.0140       0.0073
   6776.0000      64.0480      64.0480    1073.2720     230.8800     810.8120       4.6450       0.0115       0.0072
   6776.5000      51.5955      51.5955     737.2435     417.6665     549.4985       4.7785       0.0078       0.0072
   6777.0000      39.1430      39.1430     401.2150     604.4530     288.1850       4.9120       0.0041       0.0071
   6777.5000      37.6905      37.6905     453.1685     530.0030     495.8000       4.9095       0.0032       0.0066
   6778.0000      36.2380      36.2380     505.1220     455.5530     703.4150       4.9070       0.0023       0.0061
   6778.5000      37.2215      37.2215     671.2430     908.6635     957.9115       4.8100       0.0038       0.0057
   6779.0000      38.2050      38.2050     837.3640    1361.7740    1212.4080       4.7130       0.0054       0.0054
   6779.5000      38.5235      38.5235     572.7710     977.3740     788.1915       4.6175       0.0054       0.0061
   6780.0000      38.8420      38.8420     308.1780     592.9740     363.9750       4.5220       0.0054       0.0068
   6780.5000      40.5865      40.5865     325.6625     403.9955     239.1985       4.5675       0.0052       0.0069
   6781.0000      42.3310      42.3310     343.1470     215.0170     114.4220       4.6130       0.0049       0.0071
   6781.5000      46.2875      46.2875     346.2030     251.1955     228.0700       4.6990       0.0045       0.0068
   6782.0000      50.2440      50.2440     349.2590     287.3740     341.7180       4.7850       0.0041       0.0065
   6782.5000      48.9560      48.9560     353.5850     325.6010     335.7300       4.7600       0.0049       0.0084
   6783.0000      47.6680      47.6680     357.9110     363.8280     329.7420       4.7350       0.0058       0.0102
   6783.5000      41.9590      41.9590     358.6990     342.4865     443.5190       4.6045       0.0097       0.0114
   6784.0000      36.2500      36.2500     359.4870     321.1450     557.2960       4.4740       0.0136       0.0127
