#------------------------------------------------------------------------------
#
#   Created by  : [OpenWorks] Log Export Utility (LEXP)
#   Created on  : 2003-07-22 09:26:58
#   Project     : AAPG_DAN
#   User        : DAK
#   Interpreter : DAK1
#
#------------------------------------------------------------------------------
~VERSION INFORMATION
VERS. 2.0 : CWLS Log ASCII Standard - version 2.0
WRAP.  NO : One line per depth step
~WELL INFORMATION
#MNEMONIC   .UNIT                                           VALUE :DESCRIPTION
#------------------------------------------------------------------------------
STRT        .FT                                         9290.0000 :START DEPTH
STOP        .FT                                         9410.0000 :STOP DEPTH
STEP        .FT                                            0.5000 :STEP
NULL        .                                           -999.2500 :NULL VALUE
COMP        .                                        Asquith AAPG :COMPANY
WELL        .                                          Case Study :WELL
FLD         .                                             UNKNOWN :FIELD
LOC         .                                             UNKNOWN :LOCATION
CNTY        .                                             UNKNOWN :COUNTY
STAT        .                                             UNKNOWN :STATE
CTRY        .                                             UNKNOWN :COUNTRY
SRVC        .                                             UNKNOWN :SERVICE COMPANY
DATE        .                                             UNKNOWN :LOG DATE
UWI         .                                        Case Study 2 :UNIQUE WELL ID
XCOORD      .                                            0.000000 :SURFACE X
YCOORD      .                                            0.000000 :SURFACE Y
LAT         .                                            3.442337 :LATITUDE
LON         .                                         -105.983204 :LONGITUDE
ELEV        .FT                                       -98765.0000 :SURFACE ELEV
ELEV_TYPE   .                                                  NA :ELEV TYPE
~CURVE INFORMATION
#MNEMONIC.UNIT        API CODE       : CURVE DESCRIPTION
#------------------------------------------------------------------------------
DEPTH    .FT                         : Measured Depth
CALI     .inches      UNKNOWN        : CALI:BCS/GR:r1:MAIN:v1 
CALI     .inches      UNKNOWN        : CALI:CDL/DSN/GR:r1:MAIN:v1 
CALI     .inches      UNKNOWN        : CALI:DLL/GR:r1:MAIN:v1 
DPHI     .v/v_decimal UNKNOWN        : DPHI:CDL/DSN/GR:r1:MAIN:v1 
DRHO     .g/cm3       UNKNOWN        : DRHO:CDL/DSN/GR:r1:MAIN:v1 
DT       .us/ft       UNKNOWN        : DT:BCS/GR:r1:MAIN:v1 
GR       .API         UNKNOWN        : GR:BCS/GR:r1:MAIN:v1 
GR       .API         UNKNOWN        : GR:CDL/DSN/GR:r1:MAIN:v1 
GR       .API         UNKNOWN        : GR:DLL/GR:r1:MAIN:v1 
LLD      .ohm.m       UNKNOWN        : LLD:DLL/GR:r1:MAIN:v1 
LLS      .ohm.m       UNKNOWN        : LLS:DLL/GR:r1:MAIN:v1 
MSFL     .ohm.m       UNKNOWN        : MSFL:DLL/GR:r1:MAIN:v1 
NPHI     .v/v_decimal UNKNOWN        : NPHI:CDL/DSN/GR:r1:MAIN:v1 
RHOB     .g/cm3       UNKNOWN        : RHOB:PETROWORKS:r1:MAIN:v1 
~A     DEPTH         CALI         CALI         CALI         DPHI         DRHO           DT           GR           GR           GR          LLD          LLS         MSFL         NPHI         RHOB
# ...
   9374.0000       9.2260       8.5760       9.4040       0.0062       0.0480      52.4380      28.6060      30.1370      30.1190      12.0000       7.4800       5.6840       0.1250       2.7000
   9374.5000       9.2780       8.5790       9.3939       0.0174       0.0500      53.0350      25.4150      27.2140      28.7800       7.5950       7.2550       6.5200       0.1090       2.6820
   9375.0000       9.3310       8.5220       9.3856       0.0441       0.0480      54.0300      25.0510      25.4890      26.6710       6.6210       6.1350       5.5130       0.1040       2.6390
   9375.5000       9.3930       8.5010       9.3589       0.0565       0.0420      56.2850      26.9160      24.6350      24.6900       5.5130       3.5430       4.2540       0.1500       2.6190
   9376.0000       9.4210       8.4740       9.3609       0.0733       0.0350      57.6120      27.9410      24.3960      23.0980       5.1090       3.3850       2.1420       0.1650       2.5920
   9376.5000       9.4570       8.4730       9.3613       0.0752       0.0300      58.8720      28.4980      24.4990      23.9070       5.0310       3.2830       2.0460       0.1660       2.5890
   9377.0000       9.4790       8.5080       9.3597       0.0677       0.0270      59.4030      27.1780      26.2450      27.0910       5.1090       3.3850       2.2420       0.1410       2.6010
   9377.5000       9.4990       8.5440       9.3625       0.0543       0.0300      58.9390      26.8430      28.2580      28.2580       5.3480       3.5970       2.4570       0.1240       2.6225
   9378.0000       9.5320       8.5480       9.3285       0.0410       0.0320      58.2090      28.6110      30.3300      29.5240       7.3660       4.4540       2.8190       0.1030       2.6440
   9378.5000       9.5290       8.5780       9.2912       0.0286       0.0300      56.3250      31.6830      32.3200      31.2740       8.7120       6.2290       4.8060       0.0850       2.6640
   9379.0000       9.5110       8.5860       9.3371       0.0224       0.0270      54.9590      35.2750      33.4980      33.0360      10.5260       8.5800       7.5950       0.0570       2.6740
   9379.5000       9.4940       8.5690       9.3885       0.0202       0.0290      53.5660      38.9050      33.0150      35.8630      14.6310      12.1840       8.1960       0.0480       2.6775
   9380.0000       9.4940       8.5490       9.4008       0.0180       0.0360      53.6320      42.0740      30.7520      32.8680      24.2000      18.1130       7.9500       0.0360       2.6810
   9380.5000       9.4950       8.5690       9.4321       0.0286       0.0420      54.0300      40.3410      28.2020      28.4820      22.7680      16.7830       7.2550       0.0390       2.6640
   9381.0000       9.4950       8.5410       9.3952       0.0410       0.0530      55.1580      38.1970      26.3030      27.1280      12.3710      10.7850       7.1450       0.0480       2.6440
   9381.5000       9.4950       8.5410       9.3588       0.0609       0.0530      56.6500      34.4990      26.4100      25.6330       5.5980       6.6940       5.8600       0.1030       2.6120
   9382.0000       9.4950       8.5420       9.3645       0.0807       0.0500      59.9670      30.8060      28.8160      25.0340       4.1900       2.3270       1.7040       0.1150       2.5800
   9382.5000       9.4950       8.5420       9.3251       0.0863       0.0520      61.1280      26.7270      28.9480      24.4360       3.4890       1.6530       1.3770       0.1820       2.5710
   9383.0000       9.4950       8.5410       9.3298       0.0913       0.0520      61.7580      24.8630      29.2210      23.9200       3.2830       1.6030       1.2560       0.2090       2.5630
   9383.5000       9.4940       8.5430       9.3355       0.0932       0.0470      62.4540      23.2630      27.7460      22.8830       3.2830       1.5790       1.2180       0.2230       2.5600
   9384.0000       9.4940       8.5500       9.3613       0.0907       0.0420      62.4880      23.2230      26.4520      22.4660       3.2330       1.6030       1.2950       0.2300       2.5640
   9384.5000       9.5120       8.5790       9.3879       0.0851       0.0370      62.0900      24.7440      25.4410      23.2260       3.6530       1.7570       1.4860       0.1930       2.5730
   9385.0000       9.5290       8.5850       9.3911       0.0795       0.0340      61.4590      26.2250      25.9170      25.2950       3.8240       1.9250       1.7840       0.1510       2.5820
   9385.5000       9.5290       8.6110       9.4309       0.0752       0.0300      61.3930      25.6760      26.2840      26.6620       3.7660       1.8670       1.8390       0.1270       2.5890
   9386.0000       9.5280       8.6100       9.4273       0.0770       0.0300      61.3930      23.9510      25.6300      25.8210       3.5970       1.7040       1.6280       0.1330       2.5860
   9386.5000       9.5270       8.6090       9.4278       0.0795       0.0320      61.7910      21.6040      24.5730      24.3310       3.4370       1.5790       1.4190       0.1340       2.5820
   9387.0000       9.5420       8.6090       9.4283       0.0783       0.0350      61.8570      20.4340      23.5620      23.0330       3.2830       1.5320       1.3350       0.1330       2.5840
   9387.5000       9.5270       8.6100       9.4282       0.0652       0.0390      61.8240      21.3060      22.9630      21.3640       3.2830       1.5790       1.3980       0.1180       2.6050
   9388.0000       9.5290       8.6180       9.4281       0.0565       0.0420      61.0280      23.2430      23.1040      21.0620       3.4890       1.7040       1.6280       0.1050       2.6190
   9388.5000       9.5290       8.6470       9.4281       0.0522       0.0420      59.9340      26.8520      24.0360      21.7330       4.1900       2.0460       1.8390       0.0930       2.6260
   9389.0000       9.5290       8.6430       9.4281       0.0497       0.0420      59.2370      29.0510      25.2160      24.8680       4.8800       2.1750       2.0150       0.0880       2.6300
   9389.5000       9.5120       8.6750       9.4281       0.0509       0.0340      56.3850      29.4800      26.3850      28.0990       5.7720       2.3470       2.2080       0.0830       2.6280
   9390.0000       9.4940       8.7030       9.4283       0.0509       0.0290      55.5560      29.3900      29.3100      29.3650       8.8460       3.5430       2.5820       0.0650       2.6280
   9390.5000       9.4940       8.6730       9.4281       0.0441       0.0250      54.2620      27.5940      32.1410      29.6200      10.7850       5.2670       4.3080       0.0710       2.6390
   9391.0000       9.5120       8.6760       9.4265       0.0230       0.0300      53.8640      28.1930      32.9210      28.0520      12.4670       8.0110       5.0700       0.0490       2.6730
   9391.5000       9.5290       8.6770       9.4281       0.0155       0.0360      53.9970      29.8040      31.6980      27.4880      12.9510       8.0720       5.3070       0.0460       2.6850
   9392.0000       9.5290       8.6770       9.4175       0.0149       0.0400      54.5940      30.4300      29.3920      27.3740      12.4670       6.4490       4.9950       0.0470       2.6860
   9392.5000       9.5290       8.6770       9.4281       0.0323       0.0370      55.2240      29.2790      27.4770      26.3570       9.9980       5.2680       3.8130       0.0530       2.6580
   9393.0000       9.5300       8.6760       9.4290       0.0429       0.0270      55.7880      28.8050      28.3560      26.4470       8.5810       4.2670       3.2090       0.0610       2.6410
   9393.5000       9.5130       8.6770       9.4281       0.0472       0.0220      55.7880      30.7580      30.7330      29.1330       8.0720       3.6250       3.1360       0.0690       2.6340
   9394.0000       9.4770       8.6790       9.4277       0.0329       0.0190      55.0580      31.6140      34.9340      32.4740       8.0720       5.1110       3.1600       0.0690       2.6570
   9394.5000       9.4580       8.6520       9.4287       0.0193       0.0210      54.5270      39.0880      38.4460      36.5880      10.3030       5.7290       4.0530       0.0650       2.6790
