#------------------------------------------------------------------------------
#
#   Created by  : [OpenWorks] Log Export Utility (LEXP)
#   Created on  : 2003-07-22 09:28:06
#   Project     : AAPG_DAN
#   User        : DAK
#   Interpreter : DAK1
#
#------------------------------------------------------------------------------
~VERSION INFORMATION
VERS. 2.0 : CWLS Log ASCII Standard - version 2.0
WRAP.  NO : One line per depth step
~WELL INFORMATION
#MNEMONIC   .UNIT                                           VALUE :DESCRIPTION
#------------------------------------------------------------------------------
STRT        .FT                                         6750.0000 :START DEPTH
STOP        .FT                                         6850.0000 :STOP DEPTH
STEP        .FT                                            0.5000 :STEP
NULL        .                                           -999.2500 :NULL VALUE
COMP        .                                        Asquith AAPG :COMPANY
WELL        .                                          Case Study :WELL
FLD         .                                             UNKNOWN :FIELD
LOC         .                                             UNKNOWN :LOCATION
CNTY        .                                             UNKNOWN :COUNTY
STAT        .                                             UNKNOWN :STATE
CTRY        .                                             UNKNOWN :COUNTRY
SRVC        .                                             UNKNOWN :SERVICE COMPANY
DATE        .                                             UNKNOWN :LOG DATE
UWI         .                                        Case Study 7 :UNIQUE WELL ID
XCOORD      .                                            0.000000 :SURFACE X
YCOORD      .                                            0.000000 :SURFACE Y
LAT         .                                            3.442337 :LATITUDE
LON         .                                         -105.983204 :LONGITUDE
ELEV        .FT                                       -98765.0000 :SURFACE ELEV
ELEV_TYPE   .                                                  NA :ELEV TYPE
~CURVE INFORMATION
#MNEMONIC.UNIT        API CODE       : CURVE DESCRIPTION
#------------------------------------------------------------------------------
DEPTH    .FT                         : Measured Depth
GR       .API         UNKNOWN        : GR:CDL/DSN/GR:r1:MAIN:v1 
GR       .API         UNKNOWN        : GR:DLL/GR:r1:MAIN:v1 
LLD      .ohm.m       UNKNOWN        : LLD:DLL/GR:r1:MAIN:v1 
LLS      .ohm.m       UNKNOWN        : LLS:DLL/GR:r1:MAIN:v1 
MSFL     .ohm.m       UNKNOWN        : MSFL:DLL/GR:r1:MAIN:v1 
Pe       .b/elec      UNKNOWN        : Pe:CDL/DSN/GR:r1:MAIN:v1 
PHID     .v/v_decimal UNKNOWN        : PHID:CDL/DSN/GR:r1:MAIN:v1 
PHIN     .v/v_decimal UNKNOWN        : PHIN:CDL/DSN/GR:r1:MAIN:v1 
~A     DEPTH           GR           GR          LLD          LLS         MSFL           Pe         PHID         PHIN
# ...
   6819.0000     119.1360     119.1360      13.4900      12.2950       6.8080       2.8000       0.2250       0.2715
   6819.5000     114.9430     114.9430      13.4010      11.8860       4.6705       2.7860       0.2602       0.2862
   6820.0000     110.7500     110.7500      13.3120      11.4770       2.5330       2.7720       0.2955       0.3009
   6820.5000     105.6865     105.6865      14.6110      11.6150       3.8455       2.8720       0.2505       0.2930
   6821.0000     100.6230     100.6230      15.9100      11.7530       5.1580       2.9720       0.2055       0.2851
   6821.5000      93.8175      93.8175      23.0505      13.0925      14.4775       3.0830       0.1611       0.2308
   6822.0000      87.0120      87.0120      30.1910      14.4320      23.7970       3.1940       0.1168       0.1765
   6822.5000      73.6580      73.6580     453.7235      41.2905     170.7255       3.3360       0.0833       0.1029
   6823.0000      60.3040      60.3040     877.2560      68.1490     317.6540       3.4780       0.0499       0.0292
   6823.5000      49.6950      49.6950     928.4590     534.0535     773.1855       4.0870       0.0326       0.0201
   6824.0000      39.0860      39.0860     979.6620     999.9580    1228.7170       4.6960       0.0153       0.0110
   6824.5000      31.7785      31.7785     938.5640     909.0560    1292.0955       4.9505       0.0139       0.0095
   6825.0000      24.4710      24.4710     897.4660     818.1540    1355.4740       5.2050       0.0124       0.0081
   6825.5000      24.0070      24.0070     809.3870     682.2105    1037.0190       5.1210       0.0109       0.0098
   6826.0000      23.5430      23.5430     721.3080     546.2670     718.5640       5.0370       0.0094       0.0115
   6826.5000      25.5390      25.5390     628.5125     472.3800     843.3700       4.8280       0.0081       0.0136
   6827.0000      27.5350      27.5350     535.7170     398.4930     968.1760       4.6190       0.0069       0.0156
   6827.5000      30.2790      30.2790     448.8505     343.7555     941.8435       4.5025       0.0066       0.0200
   6828.0000      33.0230      33.0230     361.9840     289.0180     915.5110       4.3860       0.0062       0.0245
   6828.5000      32.3230      32.3230     274.8275     241.5160     661.7395       4.4345       0.0269       0.0407
   6829.0000      31.6230      31.6230     187.6710     194.0140     407.9680       4.4830       0.0476       0.0570
   6829.5000      33.4360      33.4360     143.4245     152.5605     281.6770       4.4865       0.0727       0.0793
   6830.0000      35.2490      35.2490      99.1780     111.1070     155.3860       4.4900       0.0978       0.1017
   6830.5000      55.8675      55.8675      60.8995      67.8415      82.7815       4.3165       0.1087       0.1442
   6831.0000      76.4860      76.4860      22.6210      24.5760      10.1770       4.1430       0.1195       0.1868
   6831.5000      86.6075      86.6075      19.4425      21.7325       5.5270       3.7370       0.1213       0.2126
   6832.0000      96.7290      96.7290      16.2640      18.8890       0.8770       3.3310       0.1230       0.2384
   6832.5000      94.5610      94.5610      17.5915      19.3825       1.1200       3.1380       0.1184       0.2551
   6833.0000      92.3930      92.3930      18.9190      19.8760       1.3630       2.9450       0.1137       0.2719
   6833.5000      86.0750      86.0750      23.4405      21.9945       1.8030       2.9995       0.1001       0.2697
   6834.0000      79.7570      79.7570      27.9620      24.1130       2.2430       3.0540       0.0865       0.2675
   6834.5000      67.6790      67.6790      84.5360      49.1895       3.3595       3.1615       0.0662       0.2336
   6835.0000      55.6010      55.6010     141.1100      74.2660       4.4760       3.2690       0.0458       0.1997
   6835.5000      51.8240      51.8240     440.1965     230.8765     215.3540       3.5050       0.0283       0.1109
   6836.0000      48.0470      48.0470     739.2830     387.4870     426.2320       3.7410       0.0109       0.0221
   6836.5000      56.0030      56.0030    1117.2240     831.1630     868.6965       4.1315       0.0019       0.0157
   6837.0000      63.9590      63.9590    1495.1650    1274.8390    1311.1610       4.5220      -0.0072       0.0092
   6837.5000      67.2265      67.2265    1527.0754    1413.3900    1480.7645       4.7085      -0.0082       0.0080
   6838.0000      70.4940      70.4940    1558.9860    1551.9410    1650.3680       4.8950      -0.0091       0.0067
   6838.5000      66.0230      66.0230    1627.7539    1473.6475    1508.5420       4.9325      -0.0085       0.0059
   6839.0000      61.5520      61.5520    1696.5220    1395.3540    1366.7159       4.9700      -0.0079       0.0051
   6839.5000      56.6540      56.6540    1718.4215    1388.6694    1369.3469       4.9510      -0.0065       0.0048
   6840.0000      51.7560      51.7560    1740.3210    1381.9850    1371.9780       4.9320      -0.0051       0.0045
   6840.5000      49.3395      49.3395    1760.1455    1405.2786    1381.7585       4.8300      -0.0056       0.0049
   6841.0000      46.9230      46.9230    1779.9700    1428.5720    1391.5389       4.7280      -0.0062       0.0052
   6841.5000      47.1350      47.1350    1781.3855    1553.2860    1353.3965       4.5990      -0.0086       0.0056
   6842.0000      47.3470      47.3470    1782.8010    1678.0000    1315.2540       4.4700      -0.0110       0.0059
   6842.5000      45.9285      45.9285    1686.0864    1677.8275    1439.3186       4.5595      -0.0111       0.0072
   6843.0000      44.5100      44.5100    1589.3719    1677.6550    1563.3831       4.6490      -0.0112       0.0084
   6843.5000      46.9740      46.9740    1280.3784    1366.1765    1342.5630       4.7775      -0.0086       0.0184
   6844.0000      49.4380      49.4380     971.3850    1054.6980    1121.7430       4.9060      -0.0061       0.0283
   6844.5000      58.7530      58.7530     560.7955     746.2880     681.1360       4.9390       0.0263       0.0646
   6845.0000      68.0680      68.0680     150.2060     437.8780     240.5290       4.9720       0.0587       0.1010
   6845.5000      74.1005      74.1005      81.5970     229.8525     124.5935       4.5175       0.0993       0.1754
   6846.0000      80.1330      80.1330      12.9880      21.8270       8.6580       4.0630       0.1398       0.2499
   6846.5000      84.0925      84.0925      11.6800      16.8500       4.9750       3.5880       0.1627       0.2823
   6847.0000      88.0520      88.0520      10.3720      11.8730       1.2920       3.1130       0.1857       0.3148
   6847.5000      86.8435      86.8435       9.7815      11.1495       1.0005       2.9605       0.1859       0.3164
   6848.0000      85.6350      85.6350       9.1910      10.4260       0.7090       2.8080       0.1860       0.3180
   6848.5000      83.9995      83.9995       8.7935      10.2835       0.7140       2.7775       0.1780       0.3255
   6849.0000      82.3640      82.3640       8.3960      10.1410       0.7190       2.7470       0.1700       0.3329
   6849.5000      80.8875      80.8875       7.9805       9.7240       0.6460       2.6345       0.1750       0.3349
   6850.0000      79.4110      79.4110       7.5650       9.3070       0.5730       2.5220       0.1800       0.3369
