#------------------------------------------------------------------------------
#
#   Created by  : [OpenWorks] Log Export Utility (LEXP)
#   Created on  : 2003-07-22 09:27:44
#   Project     : AAPG_DAN
#   User        : DAK
#   Interpreter : DAK1
#
#------------------------------------------------------------------------------
~VERSION INFORMATION
VERS. 2.0 : CWLS Log ASCII Standard - version 2.0
WRAP.  NO : One line per depth step
~WELL INFORMATION
#MNEMONIC   .UNIT                                           VALUE :DESCRIPTION
#------------------------------------------------------------------------------
STRT        .FT                                         1810.0000 :START DEPTH
STOP        .FT                                         1990.0000 :STOP DEPTH
STEP        .FT                                            0.5000 :STEP
NULL        .                                           -999.2500 :NULL VALUE
COMP        .                                        Asquith AAPG :COMPANY
WELL        .                                          Case Study :WELL
FLD         .                                             UNKNOWN :FIELD
LOC         .                                             UNKNOWN :LOCATION
CNTY        .                                             UNKNOWN :COUNTY
STAT        .                                             UNKNOWN :STATE
CTRY        .                                             UNKNOWN :COUNTRY
SRVC        .                                             UNKNOWN :SERVICE COMPANY
DATE        .                                             UNKNOWN :LOG DATE
UWI         .                                        Case Study 5 :UNIQUE WELL ID
XCOORD      .                                            0.000000 :SURFACE X
YCOORD      .                                            0.000000 :SURFACE Y
LAT         .                                            3.442337 :LATITUDE
LON         .                                         -105.983204 :LONGITUDE
ELEV        .FT                                       -98765.0000 :SURFACE ELEV
ELEV_TYPE   .                                                  NA :ELEV TYPE
~CURVE INFORMATION
#MNEMONIC.UNIT        API CODE       : CURVE DESCRIPTION
#------------------------------------------------------------------------------
DEPTH    .FT                         : Measured Depth
CALI     .inches      UNKNOWN        : CALI:CDL/DSN/GR:r1:MAIN:v1 
CILD     .S/m         UNKNOWN        : CILD:IES/GR:r1:MAIN:v1 
DPHI     .v/v_decimal UNKNOWN        : DPHI:CDL/DSN/GR:r1:MAIN:v1 
DRHO     .g/cm3       UNKNOWN        : DRHO:CDL/DSN/GR:r1:MAIN:v1 
GR       .API         UNKNOWN        : GR:CDL/DSN/GR:r1:MAIN:v1 
ILD      .ohm.m       UNKNOWN        : ILD:IES/GR:r1:MAIN:v1 
NPHI     .v/v_decimal UNKNOWN        : NPHI:CDL/DSN/GR:r1:MAIN:v1 
RHOB     .g/cm3       UNKNOWN        : RHOB:CDL/DSN/GR:r1:MAIN:v1 
SFLA     .ohm.m       UNKNOWN        : SFLA:IES/GR:r1:MAIN:v1 
SP       .mV          UNKNOWN        : SP:IES/GR:r1:MAIN:v1 
~A     DEPTH         CALI         CILD         DPHI         DRHO           GR          ILD         NPHI         RHOB         SFLA           SP
   1810.0000       8.5000    -999.2500       0.1176       0.0060      94.0970       4.9600       0.3960       2.4560       4.5630     -39.8810
   1810.5000       8.5340     228.7430       0.1200       0.0040      94.7920       4.9600       0.3930       2.4520       4.5630     -39.4840
   1811.0000       8.5340     215.9680       0.1242       0.0010      94.7920       4.1670       0.3890       2.4450       4.5630     -39.4840
   1811.5000       8.5000     212.7740       0.1315      -0.0040      94.0970       4.1670       0.3820       2.4330       4.5630     -39.4840
   1812.0000       8.5000     204.2910       0.1297       0.0030      92.0140       4.1670       0.3750       2.4360       4.9600     -39.4840
   1812.5000       8.4660     200.7980       0.1273       0.0030      89.9310       4.1670       0.3740       2.4400       4.9600     -38.6900
   1813.0000       8.4660     201.5970       0.1273       0.0010      87.8470       4.1670       0.3780       2.4400       5.3570     -39.4840
   1813.5000       8.4540     201.5970       0.1267      -0.0020      86.8430       4.1370       0.3780       2.4410       5.4040     -39.6970
   1814.0000       8.4630     203.1940       0.1212      -0.0040      85.6300       4.1890       0.3770       2.4500       5.3440     -39.8930
   1814.5000       8.4600     205.5890       0.1273      -0.0080      85.0560       4.1530       0.3530       2.4400       5.3420     -39.9490
   1815.0000       8.4320     211.5770       0.1285      -0.0100      86.2300       4.1830       0.3520       2.4380       5.4160     -40.2110
   1815.5000       8.4020     219.1620       0.1315      -0.0030      88.8030       4.1260       0.3510       2.4330       4.9950     -39.7890
   1816.0000       8.3950     229.9400       0.1321       0.0030      91.4000       4.4880       0.3570       2.4320       5.1250     -39.5140
   1816.5000       8.4250     233.5330       0.1309       0.0010      95.3400       4.5600       0.3640       2.4340       4.5990     -39.5730
   1817.0000       8.4330     231.1380       0.1321      -0.0070      96.7370       4.5690       0.3640       2.4320       4.5890     -39.8820
   1817.5000       8.4030     213.5730       0.1261      -0.0050      96.7500       4.5670       0.3600       2.4420       4.5190     -39.9500
   1818.0000       8.3980     195.2100       0.1273       0.0020      95.5500       4.5380       0.3530       2.4400       4.8530     -39.2390
   1818.5000       8.3950     184.0320       0.1436       0.0040      94.1260       4.8530       0.3470       2.4130       5.2330     -39.0920
   1819.0000       8.3970     174.4510       0.1764      -0.0020      92.0620       5.4080       0.3400       2.3590       5.9130     -39.0590
   1819.5000       8.3970     166.4670       0.2212      -0.0160      91.9650       6.4070       0.3370       2.2850       7.3130     -39.1120
   1820.0000       8.3960     151.2970       0.2945      -0.0120      91.8370       6.8310       0.3380       2.1640      10.3320     -39.0680
   1820.5000       8.3980     148.3030       0.3867       0.0000      85.5040       7.2680       0.3580       2.0120      12.1220     -39.0820
   1821.0000       8.4020     146.5070       0.3915       0.0090      80.5750       7.3780       0.3690       2.0040      13.4950     -39.1860
   1821.5000       8.4350     142.5150       0.5752       0.0140      74.4440       7.0400       0.3740       1.7010      14.9310     -39.4720
   1822.0000       8.4310     140.1200       0.5994       0.0070      67.3050       6.7910       0.4030       1.6610      14.1230     -39.7920
   1822.5000       8.4290     148.9020       0.5145      -0.0070      69.4710       6.1220       0.4220       1.8010      11.8000     -39.9570
   1823.0000       8.4340     171.2570       0.4436      -0.0110      84.9290       5.5650       0.6790       1.9180      10.5900     -40.3330
   1823.5000       8.4360     197.6050       0.4139      -0.0150     107.0990       5.0560       0.6680       1.9670       8.9020     -40.2520
   1824.0000       8.4650     202.3950       0.3782       0.0010     123.2050       4.5680       0.6520       2.0260       7.3200     -40.2840
   1824.5000       8.4950     223.3530       0.3303       0.0160     141.9270       4.1340       0.5720       2.1050       6.1850     -40.2860
   1825.0000       8.4980     231.9360       0.2745      -0.0170     153.1610       3.9720       0.5910       2.1970       5.8020     -40.2650
   1825.5000       8.5000     234.3310       0.2182      -0.0110     166.0850       3.7640       0.5840       2.2900       4.9870     -40.2870
   1826.0000       8.4950     235.5290       0.1624       0.0000     185.9040       3.7410       0.4600       2.3820       4.9570     -40.2930
   1826.5000       8.4370     231.4040       0.1461       0.0100     200.9380       4.0490       0.3900       2.4090       4.9490     -40.1620
   1827.0000       8.3920     226.3470       0.1394       0.0080     214.0360       4.4940       0.3880       2.4200       4.9800     -40.1620
   1827.5000       8.4100     219.1620       0.1339       0.0070     210.2080       4.5550       0.3900       2.4290       4.8910     -40.2950
   1828.0000       8.4260     208.7820       0.1309       0.0080     166.1530       4.8370       0.3930       2.4340       5.4810     -40.2780
   1828.5000       8.4000     194.8100       0.1291       0.0110     131.4140       5.2780       0.4010       2.4370       5.8190     -40.2790
   1829.0000       8.4050     182.0360       0.1297       0.0130     116.0990       5.4440       0.4000       2.4360       6.5760     -40.2810
   1829.5000       8.4350     171.2570       0.1212       0.0070     104.0800       5.7980       0.3870       2.4500       7.2340     -40.2030
   1830.0000       8.4600     169.6610       0.1127       0.0040     100.0430       5.7340       0.3730       2.4640       7.6710     -39.8410
   1830.5000       8.4390     168.8620       0.0982       0.0030      99.1860       5.7640       0.3690       2.4880       7.7640     -39.8970
   1831.0000       8.4200     169.2610       0.0873       0.0030     103.7940       5.7490       0.3570       2.5060       7.4840     -39.8780
   1831.5000       8.4030     173.6530       0.0824       0.0050     105.2690       5.7650       0.3550       2.5140       6.8090     -39.8840
   1832.0000       8.3970     176.8460       0.0770       0.0130     106.6410       5.7490       0.3610       2.5230       6.4320     -39.8700
   1832.5000       8.3960     182.5950       0.0818       0.0160     107.3180       5.6830       0.3640       2.5150       6.1770     -39.9050
   1833.0000       8.3950     186.8260       0.0873       0.0150     106.6240       5.3290       0.3620       2.5060       5.8350     -39.6000
   1833.5000       8.3990     189.6210       0.0861       0.0100     104.6090       5.3310       0.3340       2.5080       5.6790     -39.1630
   1834.0000       8.4020     190.4190       0.0903       0.0060     100.6350       5.4410       0.3480       2.5010       5.3020     -39.0780
   1834.5000       8.4300     191.0180       0.1000       0.0060     101.9810       4.7760       0.3640       2.4850       5.3820     -39.0840
   1835.0000       8.4600     192.4150       0.1127       0.0060     102.8070       5.0160       0.3970       2.4640       5.3470     -39.0910
   1835.5000       8.4670     196.8060       0.1212       0.0030     107.3980       4.9220       0.3980       2.4500       5.3530     -39.0810
   1836.0000       8.4340     200.0000       0.1206       0.0040     111.8610       4.8990       0.3980       2.4510       5.3670     -39.0940
   1836.5000       8.4170     204.2580       0.1242       0.0100     117.5910       4.5170       0.3940       2.4450       5.3260     -39.0780
   1837.0000       8.4020     205.9880       0.1515       0.0130     122.1310       4.5870       0.3930       2.4000       5.5480     -39.0850
   1837.5000       8.3960     201.5970       0.1836       0.0150     125.4540       4.5220       0.3970       2.3470       5.8440     -39.1640
