#------------------------------------------------------------------------------
#
#   Created by  : [OpenWorks] Log Export Utility (LEXP)
#   Created on  : 2003-07-22 09:27:09
#   Project     : AAPG_DAN
#   User        : DAK
#   Interpreter : DAK1
#
#------------------------------------------------------------------------------
~VERSION INFORMATION
VERS. 2.0 : CWLS Log ASCII Standard - version 2.0
WRAP.  NO : One line per depth step
~WELL INFORMATION
#MNEMONIC   .UNIT                                           VALUE :DESCRIPTION
#------------------------------------------------------------------------------
STRT        .FT                                        10880.0000 :START DEPTH
STOP        .FT                                        11010.0000 :STOP DEPTH
STEP        .FT                                            0.5000 :STEP
NULL        .                                           -999.2500 :NULL VALUE
COMP        .                                        Asquith AAPG :COMPANY
WELL        .                                          Case Study :WELL
FLD         .                                             UNKNOWN :FIELD
LOC         .                                             UNKNOWN :LOCATION
CNTY        .                                             UNKNOWN :COUNTY
STAT        .                                             UNKNOWN :STATE
CTRY        .                                             UNKNOWN :COUNTRY
SRVC        .                                             UNKNOWN :SERVICE COMPANY
DATE        .                                             UNKNOWN :LOG DATE
UWI         .                                        Case Study 3 :UNIQUE WELL ID
XCOORD      .                                            0.000000 :SURFACE X
YCOORD      .                                            0.000000 :SURFACE Y
LAT         .                                            3.442337 :LATITUDE
LON         .                                         -105.983204 :LONGITUDE
ELEV        .FT                                       -98765.0000 :SURFACE ELEV
ELEV_TYPE   .                                                  NA :ELEV TYPE
~CURVE INFORMATION
#MNEMONIC.UNIT        API CODE       : CURVE DESCRIPTION
#------------------------------------------------------------------------------
DEPTH    .FT                         : Measured Depth
DT       .us/ft       UNKNOWN        : DT:IES/GR:r1:MAIN:v1 
IL       .ohm.m       UNKNOWN        : IL:IES/GR:r1:MAIN:v1 
SN       .ohm.m       UNKNOWN        : SN:IES/GR:r1:MAIN:v1 
SP       .mV          UNKNOWN        : SP:IES/GR:r1:MAIN:v1 
~A     DEPTH           DT           IL           SN           SP
  10880.0000      95.3110       0.9770       1.9110      -1.8480
  10880.5000      97.8190       0.9400       1.8110      -0.5280
  10881.0000      98.9900       0.9770       1.7840      -0.5280
  10881.5000      99.9930       1.0070       1.7570      -1.5180
  10882.0000     100.3280       1.0540       1.7980      -2.8380
  10882.5000      99.9930       1.0870       1.8820      -3.4850
  10883.0000      98.3210       1.1200       2.0620      -3.9780
  10883.5000      94.1400       1.1460       2.2430      -4.5490
  10884.0000      91.6320       1.1910       2.3650      -5.8680
  10884.5000      89.1240       1.2090       2.4200      -5.8750
  10885.0000      88.1200       1.1730       2.2600      -4.7530
  10885.5000      89.2910       1.1420       2.0940      -3.1250
  10886.0000      92.1340       1.1120       2.0150      -2.5340
  10886.5000      93.6390       1.0870       2.0780      -3.4810
  10887.0000      94.3080       1.0780       2.0150      -4.1180
  10887.5000      94.3080       1.0950       2.0150      -4.1350
  10888.0000      94.3080       1.0950       2.0150      -4.2520
  10888.5000      93.9730       1.1120       2.0280      -3.5590
  10889.0000      94.6420       1.1120       2.0460      -4.2730
  10889.5000      94.9770       1.0620       2.0150      -3.9470
  10890.0000      96.1470       1.0220       1.9850      -3.6260
  10890.5000      96.4820       0.9990       1.9250      -4.4470
  10891.0000      97.1510       0.9990       1.9550      -6.5460
  10891.5000      97.4850       1.0150       2.0940     -11.7070
  10892.0000      96.6490       1.0540       2.2420     -15.3150
  10892.5000      95.1440       1.0870       2.4020     -19.7230
  10893.0000      92.8030       1.1200       2.4950     -23.0490
  10893.5000      89.1240       1.1640       2.5140     -24.2950
  10894.0000      88.1200       1.2000       2.5530     -24.9890
  10894.5000      87.1170       1.2000       2.5720     -25.3870
  10895.0000      86.6150       1.1910       2.5720     -26.0430
  10895.5000      85.9460       1.1820       2.5720     -26.5110
  10896.0000      85.9460       1.1820       2.5920     -27.3470
  10896.5000      86.4480       1.1640       2.5330     -28.2900
  10897.0000      87.7860       1.1120       2.4570     -28.8680
  10897.5000      88.7890       1.1120       2.4020     -28.5550
  10898.0000      89.6250       1.1030       2.3830     -28.2180
  10898.5000      89.7930       1.1200       2.3830     -26.5530
  10899.0000      89.1240       1.1380       2.4020     -25.3940
  10899.5000      88.1200       1.1550       2.4390     -24.5850
  10900.0000      87.9530       1.1820       2.4710     -22.7520
  10900.5000      88.2880       1.1820       2.4870     -20.8210
  10901.0000      88.6220       1.2060       2.4950     -18.9410
  10901.5000      89.2910       1.2180       2.4570     -14.9220
  10902.0000      89.9600       1.2180       2.3830     -13.4290
  10902.5000      90.2940       1.2180       2.4570     -12.7210
  10903.0000      90.6290       1.1460       2.2080     -11.0440
  10903.5000      90.9630       1.1120       2.0780      -8.3160
  10904.0000      91.2980       1.0620       1.9850      -6.8420
  10904.5000      92.6350       1.0300       1.9550      -6.8140
  10905.0000      93.6390       1.0780       1.9850      -7.1630
  10905.5000      93.6390       1.0620       1.9850      -7.8240
  10906.0000      92.3010       1.0620       1.9850      -8.1150
  10906.5000      91.6320       1.0620       2.0150      -8.6170
  10907.0000      90.9630       1.0620       1.9850      -9.2780
  10907.5000      89.9600       1.0780       1.9850     -10.4320
  10908.0000      89.9600       1.0950       1.9850     -11.0890
  10908.5000      90.2940       1.1460       2.0030     -11.9240
  10909.0000      90.6290       1.1460       2.0150     -11.3360
  10909.5000      90.9630       1.1460       2.0780      -9.9380
  10910.0000      90.6290       1.1380       2.1100      -8.6600
  10910.5000      90.2940       1.0950       2.0460      -7.1580
  10911.0000      89.9600       1.0700       2.0310      -6.0980
  10911.5000      90.4620       1.0460       1.9700      -4.5880
  10912.0000      91.1300       1.0260       1.9550      -4.6520
  10912.5000      91.9940       1.0080       1.8670      -5.5060
  10913.0000      92.9700       0.9990       1.8250      -5.4800
  10913.5000      93.3040       0.9990       1.7840      -5.1720
  10914.0000      93.3040       1.0070       1.7840      -4.9900
  10914.5000      85.2780       1.0150       1.7840      -5.9110
  10915.0000      92.9700       1.0300       1.8110      -8.6340
  10915.5000      92.4680       1.0300       1.8390     -10.7650
  10916.0000      91.2980       1.0300       1.8820     -12.0510
  10916.5000      90.9630       1.0150       1.8960     -12.3970
  10917.0000      90.9630       0.9920       1.8250     -12.7660
  10917.5000      91.1300       0.9690       1.7700     -13.0700
  10918.0000      92.1340       0.9550       1.7170     -13.0780
  10918.5000      93.4720       0.9330       1.6530     -11.6710
  10919.0000      95.3110       0.8780       1.5910     -10.6420
  10919.5000      99.8260       0.8580       1.5200      -8.4340
  10920.0000     102.6690       0.8450       1.4800      -8.2170
  10920.5000     105.0100       0.8070       1.4630      -8.3400
  10921.0000     103.0030       0.8200       1.5320      -8.9810
  10921.5000      98.3210       0.8070       1.5790     -10.1030
  10922.0000      93.3040       0.8850       1.6530     -11.1290
  10922.5000      90.9630       0.9840       1.7890     -13.2670
  10923.0000      90.6290       1.0460       1.9250     -17.1010
  10923.5000      90.6290       1.2000       2.1100     -24.2700
  10924.0000      90.6290       1.3350       2.3830     -28.9300
  10924.5000      89.2910       1.5550       2.6510     -34.3120
  10925.0000      87.2840       1.7040       3.0420     -36.1960
  10925.5000      86.9500       1.8110       3.2330     -37.0410
  10926.0000      88.2880       1.8390       3.2330     -36.4180
  10926.5000      89.6250       1.7840       3.0820     -35.2940
  10927.0000      90.9630       1.7040       2.9960     -33.8240
  10927.5000      91.9670       1.6280       2.9510     -33.2830
  10928.0000      92.6350       1.5550       2.9510     -33.2290
  10928.5000      93.9820       1.4860       2.9510     -33.2070
  10929.0000      95.3110       1.4410       2.9960     -34.5050
  10929.5000      96.3140       1.4190       2.9960     -34.5130
  10930.0000      97.8190       1.4630       2.9060     -34.2750
  10930.5000      99.1570       1.5200       2.9060     -34.3030
  10931.0000      99.9930       1.5390       2.9060     -35.3930
  10931.5000     100.4950       1.5550       2.9060     -35.5120
  10932.0000     100.6620       1.5910       2.9060     -37.3440
  10932.5000     100.4950       1.7040       2.9510     -38.8360
  10933.0000      99.9930       1.6910       2.9960     -39.7540
  10933.5000      99.3240       1.7700       3.0190     -39.7310
  10934.0000      98.8230       1.7840       3.0420     -39.2580
  10934.5000      97.9870       1.8110       3.0190     -38.1760
  10935.0000      97.1510       1.8110       3.0420     -36.5970
  10935.5000      96.9830       1.7700       3.1360     -35.1540
  10936.0000      97.1510       1.7170       3.1840     -34.2090
  10936.5000      97.6520       1.6400       3.1840     -33.4230
  10937.0000      97.8190       1.6030       3.2330     -32.9440
  10937.5000      97.8190       1.5550       3.1840     -31.2900
  10938.0000      97.4850       1.4740       3.1120     -29.9520
  10938.5000      96.8160       1.4080       3.0890     -28.9530
  10939.0000      96.3140       1.3870       3.0420     -24.7360
  10939.5000      96.3140       1.3770       2.9510     -22.2590
  10940.0000      96.6490       1.3770       2.9060     -22.1600
  10940.5000      97.3180       1.4190       2.9060     -23.8580
  10941.0000      97.3180       1.4410       2.9960     -28.4410
  10941.5000      96.9830       1.4860       3.0890     -32.5130
