#------------------------------------------------------------------------------
#
#   Created by  : [OpenWorks] Log Export Utility (LEXP)
#   Created on  : 2003-07-22 09:26:58
#   Project     : AAPG_DAN
#   User        : DAK
#   Interpreter : DAK1
#
#------------------------------------------------------------------------------
~VERSION INFORMATION
VERS. 2.0 : CWLS Log ASCII Standard - version 2.0
WRAP.  NO : One line per depth step
~WELL INFORMATION
#MNEMONIC   .UNIT                                           VALUE :DESCRIPTION
#------------------------------------------------------------------------------
STRT        .FT                                         9290.0000 :START DEPTH
STOP        .FT                                         9410.0000 :STOP DEPTH
STEP        .FT                                            0.5000 :STEP
NULL        .                                           -999.2500 :NULL VALUE
COMP        .                                        Asquith AAPG :COMPANY
WELL        .                                          Case Study :WELL
FLD         .                                             UNKNOWN :FIELD
LOC         .                                             UNKNOWN :LOCATION
CNTY        .                                             UNKNOWN :COUNTY
STAT        .                                             UNKNOWN :STATE
CTRY        .                                             UNKNOWN :COUNTRY
SRVC        .                                             UNKNOWN :SERVICE COMPANY
DATE        .                                             UNKNOWN :LOG DATE
UWI         .                                        Case Study 2 :UNIQUE WELL ID
XCOORD      .                                            0.000000 :SURFACE X
YCOORD      .                                            0.000000 :SURFACE Y
LAT         .                                            3.442337 :LATITUDE
LON         .                                         -105.983204 :LONGITUDE
ELEV        .FT                                       -98765.0000 :SURFACE ELEV
ELEV_TYPE   .                                                  NA :ELEV TYPE
~CURVE INFORMATION
#MNEMONIC.UNIT        API CODE       : CURVE DESCRIPTION
#------------------------------------------------------------------------------
DEPTH    .FT                         : Measured Depth
CALI     .inches      UNKNOWN        : CALI:BCS/GR:r1:MAIN:v1 
CALI     .inches      UNKNOWN        : CALI:CDL/DSN/GR:r1:MAIN:v1 
CALI     .inches      UNKNOWN        : CALI:DLL/GR:r1:MAIN:v1 
DPHI     .v/v_decimal UNKNOWN        : DPHI:CDL/DSN/GR:r1:MAIN:v1 
DRHO     .g/cm3       UNKNOWN        : DRHO:CDL/DSN/GR:r1:MAIN:v1 
DT       .us/ft       UNKNOWN        : DT:BCS/GR:r1:MAIN:v1 
GR       .API         UNKNOWN        : GR:BCS/GR:r1:MAIN:v1 
GR       .API         UNKNOWN        : GR:CDL/DSN/GR:r1:MAIN:v1 
GR       .API         UNKNOWN        : GR:DLL/GR:r1:MAIN:v1 
LLD      .ohm.m       UNKNOWN        : LLD:DLL/GR:r1:MAIN:v1 
LLS      .ohm.m       UNKNOWN        : LLS:DLL/GR:r1:MAIN:v1 
MSFL     .ohm.m       UNKNOWN        : MSFL:DLL/GR:r1:MAIN:v1 
NPHI     .v/v_decimal UNKNOWN        : NPHI:CDL/DSN/GR:r1:MAIN:v1 
RHOB     .g/cm3       UNKNOWN        : RHOB:PETROWORKS:r1:MAIN:v1 
~A     DEPTH         CALI         CALI         CALI         DPHI         DRHO           DT           GR           GR           GR          LLD          LLS         MSFL         NPHI         RHOB
   9290.0000       9.3280       8.5420       9.2609      -0.0354       0.0880      50.2490      21.8330      18.2270      18.2270      74.7960      87.1170      96.9310       0.0300       2.7670
   9290.5000       9.3280       8.5080       9.2274      -0.0019       0.0780      50.7790      20.8330      16.3880      17.5590      63.2460      64.2170      70.3700       0.0330       2.7130
   9291.0000       9.3280       8.4580       9.2274       0.0037       0.0620      51.5090      18.1670      13.8800      16.5550      51.0880      57.7160      57.7020       0.0390       2.7040
   9291.5000       9.3280       8.3910       9.2274       0.0062       0.0470      53.4330      16.1670      12.3750      14.5480      24.9490      17.5690      38.8260       0.0490       2.7000
   9292.0000       9.3280       8.3740       9.2274      -0.0034       0.0400      54.4280      15.5000      13.0430      13.8800      19.5480      10.7850      19.9500       0.0750       2.7155
   9292.5000       9.3260       8.3570       9.2267      -0.0130       0.0470      54.8420      16.4110      16.4010      14.0550      20.0030      10.8710       7.3660       0.0780       2.7310
   9293.0000       9.3640       8.3390       9.2284      -0.0121       0.0490      54.9590      17.3420      18.3000      15.7780      21.7500      10.7850      16.7830       0.0950       2.7295
   9293.5000       9.3600       8.3540       9.2360      -0.0112       0.0480      53.5320      18.2990      20.0790      17.5820      34.8940      28.7800      37.0890       0.0770       2.7280
   9294.0000       9.3590       8.4040       9.2635      -0.0090       0.0480      52.0400      18.8210      20.2290      17.9240      38.2370      38.8250      55.9540       0.0550       2.7245
   9294.5000       9.3860       8.4410       9.2605      -0.0068       0.0400      51.5420      19.6630      19.9580      17.9340      38.8250      39.4210      61.3460       0.0380       2.7210
   9295.0000       9.3940       8.4760       9.3007      -0.0068       0.0310      53.1010      20.1720      19.6540      18.8320      27.7730      19.2520      35.4790       0.0490       2.7210
   9295.5000       9.3960       8.4750       9.2432      -0.0068       0.0240      54.4610      20.1350      19.3180      19.2910      23.4730      10.7850      11.4630       0.0690       2.7210
   9296.0000       9.3940       8.4750       9.2292      -0.0068       0.0220      55.9540      20.7450      18.6080      18.1530      23.4730      16.7830       8.4500       0.0730       2.7210
   9296.5000       9.3920       8.4750       9.2256      -0.0447       0.0260      55.6880      20.6510      16.7150      16.6320      33.3340      22.4230      22.4720       0.0650       2.7820
   9297.0000       9.4200       8.4750       9.2271      -0.0584       0.0310      55.2240      17.2040      13.5680      14.7710     157.9000     109.5070     186.2050       0.0400       2.8040
   9297.5000       9.4270       8.4750       9.1896      -0.0770       0.0400      53.7650      14.2200      12.1150      12.6910     736.6400     265.1840     338.4600       0.0250       2.8340
   9298.0000       9.4290       8.4750       9.2097      -0.0720       0.0450      51.7080      10.9360      10.6310      10.4110     703.7000     604.1750     354.3030       0.0170       2.8260
   9298.5000       9.4260       8.4740       9.2273      -0.0963       0.0470      50.2490       9.4650      10.5210       9.2220    1095.0670     622.8840     343.6600       0.0120       2.8650
   9299.0000       9.4260       8.4740       9.2277      -0.1149       0.0470      50.2820       7.8610      10.5390       7.5510     999.3220     632.4560     412.6670       0.0100       2.8950
   9299.5000       9.3520       8.4910       9.2192      -0.1255       0.0540      50.5800       7.7970      10.5320       7.5400     984.1990     672.2330     466.2080       0.0090       2.9120
   9300.0000       9.3310       8.5100       9.1916      -0.1273       0.0620      50.5470       8.2660      10.2330       9.4430    1376.5070     819.6200     431.9830       0.0080       2.9150
   9300.5000       9.3050       8.5110       9.1934      -0.1286       0.0630      50.0500       7.3820       9.4710      11.6320    1603.2581     851.4940     379.4790       0.0080       2.9170
   9301.0000       9.2970       8.4840       9.1943      -0.1230       0.0580      49.5850       7.9240       9.3810      13.4300    1603.2581     754.2310     265.1840       0.0110       2.9080
   9301.5000       9.2700       8.4770       9.1939      -0.1124       0.0610      49.7180      11.1180      11.2380      15.0940    1452.3480     677.3980     134.7750       0.0130       2.8910
   9302.0000       9.2490       8.4420       9.1938      -0.1006       0.0680      50.1160      13.1440      14.3950      15.3750    1201.2410     652.0410      95.4640       0.0140       2.8720
   9302.5000       9.2960       8.4070       9.1950      -0.1037       0.0710      50.1820      15.4380      17.5480      15.5540    1146.3260     771.1210     133.5780       0.0140       2.8770
   9303.0000       9.2410       8.3720       9.1973      -0.1224       0.0660      50.1820      17.3310      18.2590      14.7260    1555.8240     845.1000     217.4970       0.0110       2.9070
   9303.5000       9.2300       8.3380       9.2300      -0.1410       0.0600      49.9170      15.9340      15.8830      13.7010    1770.7750     947.6330     393.4920       0.0050       2.9370
   9304.0000       9.2580       8.3410       9.2128      -0.1509       0.0670      49.8510      14.1310      13.5290      12.8570    1881.7090    1022.4730     659.3440       0.0030       2.9530
   9304.5000       9.2790       8.3040       9.1632      -0.1516       0.0790      49.9830      12.5970      11.4230      12.0390    1925.1899    1038.1840     736.6400       0.0010       2.9540
   9305.0000       9.2350       8.3080       9.1673      -0.1516       0.0850      49.1870      10.9620      10.2200      10.6030    1925.1899     866.5890     759.4520      -0.0000       2.9540
   9305.5000       9.2630       8.3060       9.1718      -0.1497       0.0880      48.9880      10.4650       9.6140      10.6890    1925.1899     667.3020     682.8800       0.0010       2.9510
   9306.0000       9.2600       8.3040       9.1771      -0.1363       0.0950      49.7180      11.1250       9.4840      12.0510    1853.2330     561.4500     564.1230       0.0070       2.9295
   9306.5000       9.2630       8.3320       9.1840      -0.1230       0.1080      50.4240      11.7380      10.3800      13.2740     894.3130     346.3810     146.0400       0.0190       2.9080
   9307.0000       9.2960       8.3390       9.1891      -0.1019       0.1250      51.6420      11.1330      11.5910      13.5500     265.1840      75.5100      41.2670       0.0410       2.8740
   9307.5000       9.2970       8.3410       9.1825      -0.0478       0.1370      53.2340      11.1510      13.1810      13.7250      51.1410      49.5530      24.5720       0.0620       2.7870
   9308.0000       9.2360       8.3400       9.1910      -0.0230       0.1260      56.4180      11.7480      13.5660      14.5690      39.1140      17.7160       4.0590       0.0990       2.7470
   9308.5000       9.1950       8.3390       9.0616       0.0441       0.1110      60.7960      14.1570      13.1470      15.4470      29.0620      15.5510       1.7110       0.1510       2.6390
   9309.0000       9.1940       8.3420       9.0254       0.0832       0.1070      62.3880      14.8380      12.8850      15.8870      26.9260      17.4760       1.3450       0.2070       2.5760
   9309.5000       9.1850       8.2980       9.0089       0.0901       0.1150      62.7860      14.5640      12.5110      15.3690      26.5180      20.6200       1.2280       0.2210       2.5650
   9310.0000       9.1490       8.2450       9.0167       0.0910       0.1320      62.9850      14.7480      12.7420      15.1430      29.7530      20.7770       1.1390       0.2500       2.5635
   9310.5000       9.1230       8.2420       8.8625       0.0919       0.1210      62.9850      15.4730      13.1970      14.9370      33.8500      20.3080       1.0780       0.2520       2.5620
