#------------------------------------------------------------------------------
#
#   Created by  : [OpenWorks] Log Export Utility (LEXP)
#   Created on  : 2003-07-22 09:27:44
#   Project     : AAPG_DAN
#   User        : DAK
#   Interpreter : DAK1
#
#------------------------------------------------------------------------------
~VERSION INFORMATION
VERS. 2.0 : CWLS Log ASCII Standard - version 2.0
WRAP.  NO : One line per depth step
~WELL INFORMATION
#MNEMONIC   .UNIT                                           VALUE :DESCRIPTION
#------------------------------------------------------------------------------
STRT        .FT                                         1810.0000 :START DEPTH
STOP        .FT                                         1990.0000 :STOP DEPTH
STEP        .FT                                            0.5000 :STEP
NULL        .                                           -999.2500 :NULL VALUE
COMP        .                                        Asquith AAPG :COMPANY
WELL        .                                          Case Study :WELL
FLD         .                                             UNKNOWN :FIELD
LOC         .                                             UNKNOWN :LOCATION
CNTY        .                                             UNKNOWN :COUNTY
STAT        .                                             UNKNOWN :STATE
CTRY        .                                             UNKNOWN :COUNTRY
SRVC        .                                             UNKNOWN :SERVICE COMPANY
DATE        .                                             UNKNOWN :LOG DATE
UWI         .                                        Case Study 5 :UNIQUE WELL ID
XCOORD      .                                            0.000000 :SURFACE X
YCOORD      .                                            0.000000 :SURFACE Y
LAT         .                                            3.442337 :LATITUDE
LON         .                                         -105.983204 :LONGITUDE
ELEV        .FT                                       -98765.0000 :SURFACE ELEV
ELEV_TYPE   .                                                  NA :ELEV TYPE
~CURVE INFORMATION
#MNEMONIC.UNIT        API CODE       : CURVE DESCRIPTION
#------------------------------------------------------------------------------
DEPTH    .FT                         : Measured Depth
CALI     .inches      UNKNOWN        : CALI:CDL/DSN/GR:r1:MAIN:v1 
CILD     .S/m         UNKNOWN        : CILD:IES/GR:r1:MAIN:v1 
DPHI     .v/v_decimal UNKNOWN        : DPHI:CDL/DSN/GR:r1:MAIN:v1 
DRHO     .g/cm3       UNKNOWN        : DRHO:CDL/DSN/GR:r1:MAIN:v1 
GR       .API         UNKNOWN        : GR:CDL/DSN/GR:r1:MAIN:v1 
ILD      .ohm.m       UNKNOWN        : ILD:IES/GR:r1:MAIN:v1 
NPHI     .v/v_decimal UNKNOWN        : NPHI:CDL/DSN/GR:r1:MAIN:v1 
RHOB     .g/cm3       UNKNOWN        : RHOB:CDL/DSN/GR:r1:MAIN:v1 
SFLA     .ohm.m       UNKNOWN        : SFLA:IES/GR:r1:MAIN:v1 
SP       .mV          UNKNOWN        : SP:IES/GR:r1:MAIN:v1 
~A     DEPTH         CALI         CILD         DPHI         DRHO           GR          ILD         NPHI         RHOB         SFLA           SP
# ...
   1894.0000       8.4650     196.8060       0.1121       0.0010      97.9250       5.1580       0.3520       2.4650       6.2670     -41.3570
   1894.5000       8.4650     209.9800       0.1188       0.0080      99.8940       4.9730       0.3570       2.4540       5.8300     -41.1040
   1895.0000       8.4660     219.5610       0.1285       0.0040     100.5890       4.6370       0.3760       2.4380       5.6760     -40.3000
   1895.5000       8.4650     229.5410       0.1303       0.0010     103.4310       4.5860       0.3990       2.4350       5.3110     -40.2960
   1896.0000       8.4630     235.9280       0.1448       0.0020     106.6610       4.3480       0.3990       2.4110       5.2970     -40.2640
   1896.5000       8.4950     240.1200       0.1400       0.0090     109.2190       4.1540       0.3980       2.4190       4.9170     -40.2820
   1897.0000       8.4950     241.1180       0.1412       0.0080     110.6040       4.1540       0.3980       2.4170       4.9720     -40.2720
   1897.5000       8.5300     233.5330       0.1467       0.0030     110.8240       4.1680       0.3970       2.4080       4.9110     -40.2830
   1898.0000       8.5330     222.7540       0.1600       0.0020     109.1240       4.1720       0.3970       2.3860       5.3450     -40.2770
   1898.5000       8.5350     201.5970       0.1879       0.0050     104.6270       4.6880       0.3970       2.3400       5.7020     -40.2480
   1899.0000       8.5340     174.0520       0.2067      -0.0010     101.9050       5.4180       0.4160       2.3090       6.4340     -40.6740
   1899.5000       8.5340     146.5070       0.2461       0.0080      99.5780       6.2760       0.4330       2.2440       7.3350     -41.0350
   1900.0000       8.5350     121.1980       0.3964       0.0070      94.6950       8.2370       0.4390       1.9960       7.8400     -40.6310
   1900.5000       8.5330      93.6530       0.3836       0.0100      85.0440      10.6300       0.5080       2.0170      10.0690     -40.6880
   1901.0000       8.5300      69.8600       0.4861       0.0070      75.8590      15.5420       0.5110       1.8480      14.3080     -40.6650
   1901.5000       8.4940      51.4970       0.6006       0.0050      67.1040      18.1070       0.5120       1.6590      22.2790     -40.7070
   1902.0000       8.4980      40.8780       0.6721       0.0040      60.6700      34.1760       0.5150       1.5410      48.7960     -40.3390
   1902.5000       8.4360      32.4950       0.7279       0.0020      53.9550      43.5190       0.6220       1.4490      98.9300     -40.0370
   1903.0000       8.4060      27.1460       0.7424       0.0020      46.9780      45.2050       0.6490       1.4250     104.2700     -39.8580
   1903.5000       8.3720      26.7470       0.7588       0.0060      41.9440      43.7800       0.6540       1.3980     104.7280     -39.9310
   1904.0000       8.3340      29.1420       0.7642       0.0000      41.7720      33.9870       0.6540       1.3890     103.6220     -39.5720
   1904.5000       8.3270      41.1180       0.7564      -0.0120      43.2900      29.3200       0.6470       1.4020     104.6410     -39.7340
   1905.0000       8.3400      55.8880       0.7442      -0.0070      46.6050      21.6450       0.6380       1.4220      84.5790     -39.8600
   1905.5000       8.3940      70.6590       0.7303      -0.0050      50.4490      15.4070       0.6290       1.4450      53.4700     -39.8890
   1906.0000       8.4010      81.7560       0.7236       0.0150      52.9390      13.4160       0.6140       1.4560      28.2870     -39.8990
   1906.5000       8.4350      94.9300       0.7061       0.0220      55.7170      10.4500       0.5930       1.4850      17.1390     -40.1230
   1907.0000       8.4300     112.5750       0.6703       0.0120      60.8410       9.0060       0.6020       1.5440      13.9340     -40.2780
   1907.5000       8.4300     132.9340       0.5727      -0.0050      72.0060       7.9680       0.5910       1.7050      11.5370     -40.2710
   1908.0000       8.4340     145.7090       0.4891      -0.0090      85.4710       7.4260       0.4830       1.8430       8.4780     -40.2500
   1908.5000       8.4010     156.2480       0.3139      -0.0110     101.6400       7.0280       0.4020       2.1320       7.9580     -39.8870
   1909.0000       8.4010     163.2730       0.1079       0.0010     114.9420       6.9190       0.3640       2.4720       7.0960     -39.8990
   1909.5000       8.3670     160.0800       0.0988       0.0070     119.9170       6.9360       0.3430       2.4870       7.3450     -39.8420
   1910.0000       8.3650     156.2870       0.1042       0.0120     118.7740       6.9460       0.3280       2.4780       7.3620     -40.2310
   1910.5000       8.3290     152.6280       0.1079       0.0150     115.2010       6.9530       0.3200       2.4720       8.1520     -40.6620
   1911.0000       8.2960     149.3010       0.0970       0.0050     110.5870       6.9010       0.3240       2.4900       9.0000     -40.6870
   1911.5000       8.3300     148.1040       0.0927      -0.0040     106.0790       7.2830       0.3270       2.4970       9.6760     -40.6500
   1912.0000       8.3290     148.9020       0.0885      -0.0100     102.6370       7.2990       0.3240       2.5040       8.5470     -40.6830
   1912.5000       8.3310     148.9020       0.0467      -0.0220     100.1470       7.6780       0.3170       2.5730       8.1660     -40.8140
   1913.0000       8.3680     148.9020       0.0491      -0.0180      97.6930       7.7220       0.3110       2.5690       7.7990     -41.5520
   1913.5000       8.3340     148.9020       0.0545       0.0020      97.8140       7.7660       0.3070       2.5600       7.6830     -41.4950
   1914.0000       8.3340     150.1000       0.1133       0.0170     100.9200       7.5720       0.3170       2.4630       7.2680     -42.0850
   1914.5000       8.3630     153.4260       0.1467       0.0280     112.2740       6.9270       0.3300       2.4080       7.3800     -42.5100
   1915.0000       8.3570     158.0840       0.1709       0.0370     118.3300       6.3570       0.3580       2.3680       7.3860     -42.9500
   1915.5000       8.3220     161.6770       0.1812       0.0270     120.4430       5.8090       0.3690       2.3510       8.0490     -43.3320
   1916.0000       8.3230     163.2730       0.1733      -0.0010     117.5970       5.7500       0.3470       2.3640       8.5990     -43.8320
   1916.5000       8.2850     157.6850       0.1358      -0.0180     110.7300       5.8100       0.3070       2.4260       9.2780     -44.6600
   1917.0000       8.2470     150.8980       0.0909      -0.0300     106.4700       6.2580       0.2930       2.5000       9.3020     -45.3380
   1917.5000       8.2170     140.9180       0.0794      -0.0360     102.5630       6.6200       0.2880       2.5190       9.3540     -47.0800
   1918.0000       8.1890     132.9340       0.0879      -0.0230     102.4620       7.3830       0.3010       2.5050       8.9860     -49.4720
   1918.5000       8.1540     118.5630       0.1012      -0.0230     104.6240       8.5630       0.3120       2.4830       8.9230     -50.7860
   1919.0000       8.1150     107.7840       0.2079      -0.0250     102.7140       9.5820       0.3430       2.3070       9.3510     -53.2040
   1919.5000       8.0800      95.4090       0.2770      -0.0250      98.5580      10.9250       0.3690       2.1930      11.8090     -56.0710
   1920.0000       8.0810      79.2020       0.3545      -0.0230      86.3620      13.8580       0.4230       2.0650      15.7380     -57.8170
   1920.5000       8.0470      62.8340       0.3915       0.0090      72.1730      17.3790       0.4450       2.0040      20.6580     -60.2630
   1921.0000       7.9780      51.8960       0.6964       0.0050      64.5080      20.3010       0.4810       1.5010      27.6560     -63.2150
   1921.5000       7.9410      49.9000       0.7152      -0.0120      72.6540      22.3250       0.5070       1.4700      32.4910     -67.1660
