#------------------------------------------------------------------------------
#
#   Created by  : [OpenWorks] Log Export Utility (LEXP)
#   Created on  : 2003-07-22 09:26:16
#   Project     : AAPG_DAN
#   User        : DAK
#   Interpreter : DAK1
#
#------------------------------------------------------------------------------
~VERSION INFORMATION
VERS. 2.0 : CWLS Log ASCII Standard - version 2.0
WRAP.  NO : One line per depth step
~WELL INFORMATION
#MNEMONIC   .UNIT                                           VALUE :DESCRIPTION
#------------------------------------------------------------------------------
STRT        .FT                                        14540.0000 :START DEPTH
STOP        .FT                                        14660.0000 :STOP DEPTH
STEP        .FT                                            0.5000 :STEP
NULL        .                                           -999.2500 :NULL VALUE
COMP        .                                        Asquith AAPG :COMPANY
WELL        .                                          Case Study :WELL
FLD         .                                             UNKNOWN :FIELD
LOC         .                                             UNKNOWN :LOCATION
CNTY        .                                             UNKNOWN :COUNTY
STAT        .                                             UNKNOWN :STATE
CTRY        .                                             UNKNOWN :COUNTRY
SRVC        .                                             UNKNOWN :SERVICE COMPANY
DATE        .                                             UNKNOWN :LOG DATE
UWI         .                                        Case Study 1 :UNIQUE WELL ID
XCOORD      .                                            0.000000 :SURFACE X
YCOORD      .                                            0.000000 :SURFACE Y
LAT         .                                            3.442337 :LATITUDE
LON         .                                         -105.983204 :LONGITUDE
ELEV        .FT                                       -98765.0000 :SURFACE ELEV
ELEV_TYPE   .                                                  NA :ELEV TYPE
~CURVE INFORMATION
#MNEMONIC.UNIT        API CODE       : CURVE DESCRIPTION
#------------------------------------------------------------------------------
DEPTH    .FT                         : Measured Depth
CALI     .inches      UNKNOWN        : CALI:CDL/DSN/GR:r1:MAIN:v1 
DPHI     .v/v_decimal UNKNOWN        : DPHI:CDL/DSN/GR:r1:MAIN:v1 
GR       .API         UNKNOWN        : GR:CDL/DSN/GR:r1:MAIN:v1 
GR       .API         UNKNOWN        : GR:DIL/GR:r1:MAIN:v1 
ILD      .ohm.m       UNKNOWN        : ILD:DIL/GR:r1:MAIN:v1 
ILM      .ohm.m       UNKNOWN        : ILM:DIL/GR:r1:MAIN:v1 
LL8      .ohm.m       UNKNOWN        : LL8:DIL/GR:r1:MAIN:v1 
NPHI     .v/v_decimal UNKNOWN        : NPHI:CDL/DSN/GR:r1:MAIN:v1 
SP       .mV          UNKNOWN        : SP:DIL/GR:r1:MAIN:v1 
~A     DEPTH         CALI         DPHI           GR           GR          ILD          ILM          LL8         NPHI           SP
# ...
  14633.0000      13.5040       0.3970      61.2110      54.7650       2.8560       2.8560       3.7630       0.4580      10.9110
  14633.5000      12.4890       0.3950      61.4760      55.8410       2.8560       2.8560       3.7630       0.4710      10.9140
  14634.0000      12.1320       0.3910      61.3870      56.6640       2.8130       2.8560       3.4860       0.4730      10.9080
  14634.5000      12.5700       0.3870      60.1550      55.9000       2.8130       2.9450       3.2290       0.4620      10.9230
  14635.0000      13.1980       0.3850      57.4050      50.9570       2.8130       3.0370       3.0370       0.4580      10.8140
  14635.5000      13.6890       0.3870      54.5740      43.9380       2.9450       3.2290       2.9450       0.4560      10.9180
  14636.0000      14.0130       0.4140      53.0510      41.6180       3.1800       3.4330       2.9450       0.4530      11.0980
  14636.5000      13.8230       0.4200      53.6800      43.7470       3.4860       3.7060       2.9900       0.4250      11.9240
  14637.0000      13.8240       0.4170      54.4050      48.1760       3.8800       4.4540       3.1800       0.3980      12.4660
  14637.5000      14.0500       0.4090      55.4630      51.2810       4.6640       4.9590       4.0010       0.3800      13.2520
  14638.0000      14.3410       0.2910      57.1020      51.1140       5.6060       5.7800       4.8830       0.2980      13.7270
  14638.5000      14.4510       0.2290      57.7390      48.6180       6.8410       7.2740       7.1630       0.2880      14.1980
  14639.0000      12.2470       0.1360      57.3480      46.2070       7.5000       7.8530      10.5070       0.2660      14.4410
  14639.5000      10.3630       0.0730      55.1340      45.6420       8.0980       8.4780      11.3440       0.2330      14.6950
  14640.0000      10.2160       0.0470      54.4320      47.4530       8.7420       9.0140      11.3440       0.2150      14.8490
  14640.5000       9.9320       0.0300      54.9730      47.6340       9.2950       9.2950       9.9590       0.2030      15.2120
  14641.0000       9.9650       0.0280      55.2110      45.1530       9.4390       9.2950       9.8830       0.2020      15.2380
  14641.5000      10.0140       0.0290      55.5510      43.6570       9.0840       9.0840      10.4280       0.2010      14.9800
  14642.0000      10.0560       0.0340      55.5810      42.8130       8.5440       8.5440      10.9180       0.1960      14.7390
  14642.5000      10.0960       0.0380      55.5810      44.7830       8.0360       8.0360      10.0350       0.1910      14.4860
  14643.0000      10.1370       0.0400      53.2740      47.2490       7.7930       7.6750       9.4400       0.1890      13.9750
  14643.5000      10.2070       0.0400      53.2300      49.1870       7.5580       7.3300       9.0140       0.1950      13.5510
  14644.0000      10.3300       0.0410      54.3520      51.9780       7.3860       7.1630       8.8770       0.1970      13.4380
  14644.5000      10.5920       0.0410      56.5000      53.1910       7.2740       7.2740       9.0840       0.2220      13.2570
  14645.0000      10.6620       0.0390      58.1290      50.6900       7.2740       7.3860       9.1540       0.2310      13.2120
  14645.5000      10.4920       0.0400      56.6330      49.5210       7.2740       7.5000       9.2950       0.2170      13.5810
  14646.0000      10.4270       0.0430      56.0670      49.0820       7.6170       7.6160       9.5110       0.2080      13.6000
  14646.5000      10.3770       0.0470      55.4850      49.1910       8.0980       7.8530       9.6580       0.2040      13.8290
  14647.0000      10.3630       0.0510      55.2920      49.4690       8.4140       8.2860       9.3670       0.2030      13.9910
  14647.5000      10.4250       0.0540      56.1060      47.4190       8.7420       8.6760       9.9610       0.2010      14.3320
  14648.0000      10.4690       0.0560      55.0480      44.9360       9.1540       9.0140      11.1730       0.1970      14.6420
  14648.5000      10.4930       0.0410      51.7290      38.7800       9.2950       9.1540      12.3450       0.1850      14.8650
  14649.0000      10.5070       0.0230      49.4980      37.2830       9.0840       9.2950      13.7400       0.1690      14.7880
  14649.5000      10.5620       0.0030      45.6900      36.6470       8.8100       9.2240      12.9260       0.1550      14.4610
  14650.0000      10.6120      -0.0010      43.3520      36.9360       8.4780       9.0140      11.1720       0.1530      13.9760
  14650.5000      10.6360      -0.0010      46.0450      35.4750       8.0980       8.7420       9.2950       0.1520      13.5400
  14651.0000      10.6340       0.0050      48.7870      46.7050       7.8530       7.8530       8.3500       0.1750      12.9870
  14651.5000      10.6320       0.0260      51.8430      50.4190       7.7340       7.5000       7.8530       0.1830      12.2730
  14652.0000      10.6600       0.0310      54.7920      52.6670       7.7340       7.2740       7.8530       0.1920      11.2240
  14652.5000      10.6750       0.0680      55.0760      54.0320       7.9740       7.1630       9.8830       0.2120      10.8990
  14653.0000      10.7040       0.0760      54.8740      53.0060       8.0980       7.1630      10.8340       0.2300      10.4350
  14653.5000      10.7000       0.0560      54.9370      50.1350       8.0980       7.0540      11.6970       0.2230       9.8810
  14654.0000      10.7230       0.0460      54.9290      47.9630       7.7340       7.0540      12.2480       0.2090       9.6230
  14654.5000      10.7610       0.0410      63.5080      47.1260       7.0540       6.8410      10.6700       0.2030       8.9600
  14655.0000      10.8600       0.1160      59.1620      47.4110       6.3370       6.4350       9.2950       0.2020       8.2290
  14655.5000      11.0870       0.1690      56.9370      49.9020       5.7800       5.9600       7.1630       0.2010       7.2920
  14656.0000      12.0310       0.2170      56.9290      52.1030       5.2720       5.1130       5.2720       0.2030       6.4690
  14656.5000      12.5720       0.2660      56.9400      54.3020       4.8090       4.5230       4.4540       0.2860       5.6130
  14657.0000      13.2270       0.3100      58.0200      54.3790       4.5230       4.2540       4.1890       0.2940       4.3600
  14657.5000      14.2740       0.3320      59.0040      54.2650       4.3200       4.2540       4.0010       0.3200       3.7160
  14658.0000      14.6200       0.3730      58.9810      50.0510       4.1260       4.1260       3.9400       0.3480       2.9710
  14658.5000      14.8370       0.4250      56.2280      45.9880       4.0010       4.0010       3.8800       0.4260       2.6690
  14659.0000      15.1040       0.4460      54.5910      45.4070       3.9400       4.1260       3.8800       0.4430       1.0530
  14659.5000      15.5580       0.4550      52.7710      48.2220       3.8800       4.1890       3.8800       0.4470       1.0220
  14660.0000      15.9290       0.4570      55.2970      51.7350       3.8210       4.0940       3.8800       0.4480      -1.6920
