#------------------------------------------------------------------------------
#
#   Created by  : [OpenWorks] Log Export Utility (LEXP)
#   Created on  : 2003-07-22 09:27:44
#   Project     : AAPG_DAN
#   User        : DAK
#   Interpreter : DAK1
#
#------------------------------------------------------------------------------
~VERSION INFORMATION
VERS. 2.0 : CWLS Log ASCII Standard - version 2.0
WRAP.  NO : One line per depth step
~WELL INFORMATION
#MNEMONIC   .UNIT                                           VALUE :DESCRIPTION
#------------------------------------------------------------------------------
STRT        .FT                                         1810.0000 :START DEPTH
STOP        .FT                                         1990.0000 :STOP DEPTH
STEP        .FT                                            0.5000 :STEP
NULL        .                                           -999.2500 :NULL VALUE
COMP        .                                        Asquith AAPG :COMPANY
WELL        .                                          Case Study :WELL
FLD         .                                             UNKNOWN :FIELD
LOC         .                                             UNKNOWN :LOCATION
CNTY        .                                             UNKNOWN :COUNTY
STAT        .                                             UNKNOWN :STATE
CTRY        .                                             UNKNOWN :COUNTRY
SRVC        .                                             UNKNOWN :SERVICE COMPANY
DATE        .                                             UNKNOWN :LOG DATE
UWI         .                                        Case Study 5 :UNIQUE WELL ID
XCOORD      .                                            0.000000 :SURFACE X
YCOORD      .                                            0.000000 :SURFACE Y
LAT         .                                            3.442337 :LATITUDE
LON         .                                         -105.983204 :LONGITUDE
ELEV        .FT                                       -98765.0000 :SURFACE ELEV
ELEV_TYPE   .                                                  NA :ELEV TYPE
~CURVE INFORMATION
#MNEMONIC.UNIT        API CODE       : CURVE DESCRIPTION
#------------------------------------------------------------------------------
DEPTH    .FT                         : Measured Depth
CALI     .inches      UNKNOWN        : CALI:CDL/DSN/GR:r1:MAIN:v1 
CILD     .S/m         UNKNOWN        : CILD:IES/GR:r1:MAIN:v1 
DPHI     .v/v_decimal UNKNOWN        : DPHI:CDL/DSN/GR:r1:MAIN:v1 
DRHO     .g/cm3       UNKNOWN        : DRHO:CDL/DSN/GR:r1:MAIN:v1 
GR       .API         UNKNOWN        : GR:CDL/DSN/GR:r1:MAIN:v1 
ILD      .ohm.m       UNKNOWN        : ILD:IES/GR:r1:MAIN:v1 
NPHI     .v/v_decimal UNKNOWN        : NPHI:CDL/DSN/GR:r1:MAIN:v1 
RHOB     .g/cm3       UNKNOWN        : RHOB:CDL/DSN/GR:r1:MAIN:v1 
SFLA     .ohm.m       UNKNOWN        : SFLA:IES/GR:r1:MAIN:v1 
SP       .mV          UNKNOWN        : SP:IES/GR:r1:MAIN:v1 
~A     DEPTH         CALI         CILD         DPHI         DRHO           GR          ILD         NPHI         RHOB         SFLA           SP
# ...
   1950.0000       7.5650      65.8680       0.1479       0.0390      72.0850      16.0690       0.2380       2.4060      19.2750     -87.0510
   1950.5000       7.5930      67.0660       0.1339       0.0450      72.4480      16.0040       0.2350       2.4290      20.0080     -85.4510
   1951.0000       7.5670      68.6630       0.1261       0.0690      73.0070      15.5440       0.2290       2.4420      20.0920     -83.8660
   1951.5000       7.5820      70.6590       0.1388       0.0500      71.4990      15.3040       0.2270       2.4210      20.5380     -82.9640
   1952.0000       7.5890      72.7540       0.1624       0.0480      66.8060      14.8070       0.2270       2.3820      20.0450     -81.7400
   1952.5000       7.5950      76.2480       0.1564       0.0560      64.8160      14.1000       0.2200       2.3920      19.2020     -80.7760
   1953.0000       7.6020      79.4410       0.1418       0.0560      66.8100      13.2550       0.2200       2.4160      17.8560     -79.7450
   1953.5000       7.6160      83.4330       0.1273       0.0450      70.9800      12.8640       0.2220       2.4400      17.3850     -78.7880
   1954.0000       7.6400      87.1260       0.1236       0.0490      74.9020      12.8840       0.2250       2.4460      15.9650     -77.9700
   1954.5000       7.6640      90.6190       0.1194       0.0480      76.6200      12.5690       0.2310       2.4530      15.1170     -77.3930
   1955.0000       7.6740      93.0140       0.1327       0.0320      74.8630      12.1780       0.2350       2.4310      13.3960     -76.6960
   1955.5000       7.7250      94.6110       0.1491       0.0130      73.9010      12.1170       0.2430       2.4040      12.6020     -76.0800
   1956.0000       7.7700      97.2460       0.1455       0.0130      74.7850      11.8970       0.2470       2.4100      12.1040     -75.5340
   1956.5000       7.8750      97.6450       0.1339       0.0190      78.8570      11.6920       0.2480       2.4290      11.6530     -74.1090
   1957.0000       7.9450      97.8040       0.1321       0.0220      81.6050      11.7050       0.2480       2.4320      11.7040     -73.0400
   1957.5000       8.0120      97.8040       0.1418       0.0200      81.4410      11.7110       0.2480       2.4160      11.7430     -71.8010
   1958.0000       8.0460      98.6030       0.1521       0.0080      80.8490      11.6960       0.2470       2.3990      11.3770     -70.6880
   1958.5000       8.0480      98.6030       0.1558       0.0050      80.9630      11.7150       0.2450       2.3930      11.3300     -70.0930
   1959.0000       8.0470      98.6030       0.1533       0.0050      82.2570      11.7120       0.2440       2.3970      11.0930     -70.2490
   1959.5000       8.0170      98.6030       0.1479       0.0040      82.1270      11.6210       0.2480       2.4060      10.9330     -70.4350
   1960.0000       7.9880      97.8040       0.1442       0.0060      81.4200      11.2710       0.2520       2.4120      10.5760     -70.4130
   1960.5000       7.9830      97.8040       0.1358       0.0060      80.0760      11.4020       0.2600       2.4260      10.6350     -69.9130
   1961.0000       7.9770      97.8040       0.1279       0.0040      80.1070      11.7390       0.2600       2.4390      10.6170     -69.7180
   1961.5000       7.9460      98.6030       0.1212       0.0010      81.5360      11.7000       0.2580       2.4500      10.5110     -69.3160
   1962.0000       7.9450      98.6030       0.1212       0.0050      81.9940      11.7020       0.2580       2.4500      10.5020     -69.1460
   1962.5000       7.9740      98.6030       0.1230       0.0020      82.5990      11.6490       0.2570       2.4470      10.5170     -68.0450
   1963.0000       8.0120      98.6030       0.1236       0.0030      84.2480      11.2540       0.2560       2.4460      10.5370     -67.1840
   1963.5000       8.0220      98.6030       0.1333       0.0040      85.7750      11.2590       0.2580       2.4300      10.4590     -66.4510
   1964.0000       8.0540      98.6030       0.1376       0.0100      88.8880      10.8840       0.2590       2.4230      10.8370     -65.8070
   1964.5000       8.0470      97.8200       0.1352       0.0120      90.9120      10.8050       0.2600       2.4270      11.0020     -64.9300
   1965.0000       8.0150      97.0060       0.1279       0.0140      90.7400      10.8020       0.2590       2.4390      11.3080     -63.8700
   1965.5000       7.9830      93.0140       0.1291       0.0080      89.1520      10.9240       0.2580       2.4370      11.6250     -62.8430
   1966.0000       7.9440      89.8200       0.1321       0.0080      88.4210      10.8900       0.2560       2.4320      11.7320     -61.3550
   1966.5000       7.9770      86.4350       0.1321       0.0070      89.1750      11.2900       0.2500       2.4320      12.5120     -60.8890
   1967.0000       7.9780      83.4330       0.1218       0.0160      88.5120      12.0070       0.2480       2.4490      12.4560     -60.4160
   1967.5000       8.0130      81.0380       0.1085       0.0120      87.8600      12.6970       0.2440       2.4710      13.6780     -60.8460
   1968.0000       8.0160      79.4410       0.0939       0.0070      88.9940      13.2380       0.2330       2.4950      14.1760     -61.1080
   1968.5000       8.0180      80.2400       0.0764       0.0020      89.9130      13.2470       0.2180       2.5240      14.8600     -61.8760
   1969.0000       8.0170      80.2400       0.0600       0.0010      91.1970      12.6950       0.2040       2.5510      15.6120     -62.1140
   1969.5000       8.0170      83.4330       0.0461       0.0040      91.9010      11.9860       0.1800       2.5740      14.5880     -62.0620
   1970.0000       8.0170      87.0260       0.0521       0.0090      90.9150      11.5080       0.1860       2.5640      13.6240     -61.2570
   1970.5000       8.0170      91.8250       0.0745       0.0060      90.2480      11.2190       0.1930       2.5270      13.5290     -60.6640
   1971.0000       8.0170      96.2080       0.0982       0.0020      90.7310      10.8000       0.2020       2.4880      12.7920     -60.1190
   1971.5000       8.0160      98.6030       0.1127      -0.0010      91.9240      10.4840       0.2190       2.4640      12.2070     -59.6200
   1972.0000       8.0170     100.2000       0.1170      -0.0020      91.8780      10.5270       0.2290       2.4570      11.6960     -59.0140
   1972.5000       8.0210      99.8000       0.1218       0.0040      89.9380      10.5800       0.2360       2.4490      11.3430     -58.0830
   1973.0000       7.9880      99.0020       0.1279      -0.0010      88.6280      10.9610       0.2470       2.4390      11.6780     -57.3150
   1973.5000       7.9830      97.0060       0.1285      -0.0070      88.6130      10.8810       0.2500       2.4380      11.2500     -56.9000
   1974.0000       7.9760      96.2080       0.1200      -0.0040      87.9580      11.1920       0.2540       2.4520      11.4830     -56.7660
   1974.5000       7.9390      93.3330       0.1121       0.0040      87.3330      11.6050       0.2520       2.4650      12.0280     -56.5540
   1975.0000       7.9030      91.4170       0.1030       0.0160      88.0400      12.1180       0.2490       2.4800      12.2970     -56.5420
   1975.5000       7.8720      90.6190       0.0921       0.0260      88.6930      12.4450       0.2460       2.4980      12.5220     -56.5500
   1976.0000       7.8460      89.8200       0.0855       0.0210      87.9060      12.0970       0.2430       2.5090      12.4960     -56.5520
   1976.5000       7.8160      88.7560       0.0739       0.0140      87.8660      11.8280       0.2300       2.5280      12.5660     -56.5280
   1977.0000       7.8130      88.2240       0.0648       0.0100      88.6960      11.2990       0.2220       2.5430      12.9540     -56.5910
   1977.5000       7.8100      89.0220       0.0612       0.0130      91.5940      10.9730       0.2120       2.5490      12.8760     -56.2370
