#------------------------------------------------------------------------------
#
#   Created by  : [OpenWorks] Log Export Utility (LEXP)
#   Created on  : 2003-07-22 09:26:16
#   Project     : AAPG_DAN
#   User        : DAK
#   Interpreter : DAK1
#
#------------------------------------------------------------------------------
~VERSION INFORMATION
VERS. 2.0 : CWLS Log ASCII Standard - version 2.0
WRAP.  NO : One line per depth step
~WELL INFORMATION
#MNEMONIC   .UNIT                                           VALUE :DESCRIPTION
#------------------------------------------------------------------------------
STRT        .FT                                        14540.0000 :START DEPTH
STOP        .FT                                        14660.0000 :STOP DEPTH
STEP        .FT                                            0.5000 :STEP
NULL        .                                           -999.2500 :NULL VALUE
COMP        .                                        Asquith AAPG :COMPANY
WELL        .                                          Case Study :WELL
FLD         .                                             UNKNOWN :FIELD
LOC         .                                             UNKNOWN :LOCATION
CNTY        .                                             UNKNOWN :COUNTY
STAT        .                                             UNKNOWN :STATE
CTRY        .                                             UNKNOWN :COUNTRY
SRVC        .                                             UNKNOWN :SERVICE COMPANY
DATE        .                                             UNKNOWN :LOG DATE
UWI         .                                        Case Study 1 :UNIQUE WELL ID
XCOORD      .                                            0.000000 :SURFACE X
YCOORD      .                                            0.000000 :SURFACE Y
LAT         .                                            3.442337 :LATITUDE
LON         .                                         -105.983204 :LONGITUDE
ELEV        .FT                                       -98765.0000 :SURFACE ELEV
ELEV_TYPE   .                                                  NA :ELEV TYPE
~CURVE INFORMATION
#MNEMONIC.UNIT        API CODE       : CURVE DESCRIPTION
#------------------------------------------------------------------------------
DEPTH    .FT                         : Measured Depth
CALI     .inches      UNKNOWN        : CALI:CDL/DSN/GR:r1:MAIN:v1 
DPHI     .v/v_decimal UNKNOWN        : DPHI:CDL/DSN/GR:r1:MAIN:v1 
GR       .API         UNKNOWN        : GR:CDL/DSN/GR:r1:MAIN:v1 
GR       .API         UNKNOWN        : GR:DIL/GR:r1:MAIN:v1 
ILD      .ohm.m       UNKNOWN        : ILD:DIL/GR:r1:MAIN:v1 
ILM      .ohm.m       UNKNOWN        : ILM:DIL/GR:r1:MAIN:v1 
LL8      .ohm.m       UNKNOWN        : LL8:DIL/GR:r1:MAIN:v1 
NPHI     .v/v_decimal UNKNOWN        : NPHI:CDL/DSN/GR:r1:MAIN:v1 
SP       .mV          UNKNOWN        : SP:DIL/GR:r1:MAIN:v1 
~A     DEPTH         CALI         DPHI           GR           GR          ILD          ILM          LL8         NPHI           SP
# ...
  14571.0000      13.0410       0.2800      62.9650      58.9570       2.5270       2.7490       2.7070       0.4330      -0.2310
  14571.5000      13.0140       0.2730      63.3210      58.9220       2.5460       2.8780       2.9000       0.4170      -0.4470
  14572.0000      13.3460       0.2710      62.0700      58.7410       2.6660       2.9450       3.1550       0.4070       0.0110
  14572.5000      13.9700       0.2990      62.3280      60.2080       2.8780       2.9900       3.2290       0.3990      -0.1810
  14573.0000      14.2620       0.3530      63.3590      62.2520       3.0610       3.0840       3.2540       0.4000      -0.6710
  14573.5000      14.4340       0.3270      65.0040      63.9250       3.2290       3.0840       3.4330       0.4000      -1.1490
  14574.0000      14.9030       0.2940      66.6250      65.2140       3.1800       3.0840       3.8540       0.3940      -1.4820
  14574.5000      15.4050       0.2860      70.0480      67.0180       3.0840       3.0600       4.2220       0.3450      -1.9790
  14575.0000      15.4770       0.2840      70.8030      69.4450       3.0140       2.9900       4.3200       0.3160      -1.9520
  14575.5000      15.5400       0.2840      68.7700      71.1720       2.9450       2.9680       4.0330       0.3200      -1.9430
  14576.0000      15.5550       0.2840      66.3810      70.2160       2.9230       2.9000       3.4600       0.3390      -1.9530
  14576.5000      15.5600       0.2870      64.6240      68.1120       2.8560       2.8560       3.1800       0.3680      -1.9590
  14577.0000      15.5080       0.3000      63.0630      65.7580       2.8560       2.8560       2.8780       0.3910      -1.7930
  14577.5000      15.2460       0.3460      63.0940      63.4710       2.9000       2.9000       2.7700       0.4090      -1.4510
  14578.0000      14.9970       0.3760      63.5090      62.4950       2.9450       2.9230       2.7280       0.4170      -1.1140
  14578.5000      14.7130       0.3800      63.7440      62.3050       2.9910       2.9680       2.7280       0.4170      -0.9450
  14579.0000      14.8140       0.3690      64.8610      62.0750       3.1800       3.0370       2.9020       0.4120      -0.9140
  14579.5000      14.8980       0.3650      65.5360      61.6840       3.1800       3.1070       3.2790       0.4070      -1.3970
  14580.0000      14.8570       0.3770      66.0480      53.7440       3.2290       3.1800       3.7060       0.4080      -1.8840
  14580.5000      14.6530       0.3860      64.8670      52.5090       3.2290       3.1800       4.1890       0.4140      -2.0020
  14581.0000      14.5950       0.3850      63.0450      52.5450       3.2290       3.1800       4.8830       0.4140      -2.6290
  14581.5000      14.5100       0.3700      62.2440      53.1150       3.1800       3.0840       5.3540       0.4050      -2.8270
  14582.0000      14.3180       0.3590      63.0160      61.5670       3.1310       2.9450       5.0350       0.3760      -3.1740
  14582.5000      14.1190       0.2980      65.1180      65.9110       3.0840       2.7280       4.3870       0.3570      -3.3280
  14583.0000      14.0500       0.3030      67.1180      61.4890       2.9900       2.5270       3.6500       0.3560      -3.8680
  14583.5000      13.9430       0.3080      65.0720      57.7050       2.9450       2.4500       3.2780       0.3890      -3.8970
  14584.0000      13.7890       0.3120      62.7320      52.9240       2.9000       2.4500       3.0370       0.4010      -4.1880
  14584.5000      13.6840       0.3160      62.0900      51.2640       2.9000       2.5660       2.9000       0.4100      -4.3310
  14585.0000      13.6130       0.3200      62.1170      51.3300       2.8560       2.7280       3.4860       0.4330      -4.6210
  14585.5000      13.4590       0.3550      63.0520      53.4840       2.9000       2.8560       4.6640       0.4430      -4.6010
  14586.0000      13.1350       0.3770      62.8370      60.6900       2.9000       2.9000       7.0540       0.4620      -4.3530
  14586.5000      11.3520       0.3730      62.4820      63.2540       2.9000       2.8560       7.3860       0.4730      -3.9700
  14587.0000      10.9440       0.3655      60.8120      64.9530       2.8560       2.8130       4.9590       0.3710      -3.3500
  14587.5000      11.1360       0.3580      59.3930      63.4150       2.7700       2.8130       3.7630       0.2980      -2.9800
  14588.0000      12.3410       0.3570      60.3130      60.4700       2.6450       2.7700       2.9450       0.2970      -2.3620
  14588.5000      13.2020       0.4040      60.3870      57.6880       2.4130       2.6450       2.9000       0.3020      -1.8240
  14589.0000      14.1370       0.4150      60.1000      55.2660       2.2010       2.4130       2.9900       0.3570      -1.0120
  14589.5000      14.5590       0.4195      59.8940      55.3110       2.1680       2.2700       3.2290       0.3870       0.1930
  14590.0000      14.8180       0.4240      60.2740      55.0780       2.1510       2.1840       3.5130       0.4060       0.4800
  14590.5000      14.8180       0.3750      60.6610      59.5890       2.1350       2.1020       3.6500       0.4230       0.5550
  14591.0000      14.2900       0.3720      61.2130      61.6640       2.1020       2.0700       3.2290       0.4220       0.6810
  14591.5000      13.8760       0.3650      62.7530      63.8570       2.0700       2.1020       2.7280       0.4150       0.7080
  14592.0000      13.6490       0.3460      65.3460      63.0540       2.1020       2.1350       2.4010       0.4170       0.3750
  14592.5000      13.0090       0.3270      68.1330      57.2780       2.1350       2.2700       2.1680       0.4230       0.0910
  14593.0000      12.7460       0.3020      71.3850      56.5800       2.2010       2.5270       2.3050       0.4210      -0.2550
  14593.5000      12.5860       0.2980      73.9030      56.5830       2.3400       2.8560       2.5270       0.4050      -0.4610
  14594.0000      12.8890       0.3120      72.7510      58.3720       2.6050       3.0840       2.8560       0.3660      -0.6850
  14594.5000      13.1720       0.3255      70.2810      56.5040       2.9900       3.3290       3.4330       0.3280      -1.3770
  14595.0000      13.0070       0.3390      67.7650      51.7500       3.4860       3.5400       3.8800       0.3250      -1.8030
  14595.5000      12.8040       0.3220      66.8610      50.2740       3.8800       3.7630       4.4540       0.3200      -1.9880
  14596.0000      12.7650       0.2980      66.3310      49.1770       4.0630       4.1260       5.3540       0.3170      -2.3230
  14596.5000      12.3340       0.2710      64.8720      51.2440       4.3200       4.5230       6.5080       0.3050      -2.5310
  14597.0000      10.8690       0.2690      63.5990      53.0830       4.6640       4.8830       7.2740       0.2970      -2.6350
  14597.5000      10.3590       0.2670      61.3750      54.7230       5.0350       5.4360       7.3860       0.2700      -2.9890
  14598.0000       9.7910       0.2880      60.4670      55.2290       5.4620       5.6920       6.3370       0.2360      -2.6560
  14598.5000       9.5280       0.2990      60.4440      57.4680       5.9600       7.7340       6.2400       0.2260      -2.9100
  14599.0000       9.2770       0.3675      61.0430      48.7900       7.5000       8.3500       7.9740       0.2820      -3.2150
  14599.5000       8.6970       0.4360      60.9050      45.7320      18.2040       9.5840      11.1720       0.3000      -3.5220
  14600.0000       8.4690       0.2860      57.7540      33.1180      27.6670      13.5400      29.0340       0.3000      -4.1420
  14600.5000       8.4230       0.1850      54.3680      25.3160      37.1290     238.5880     178.9690       0.2250      -4.9290
  14601.0000       8.4200       0.1720      42.6190      24.5110      46.5920     507.1430     283.4290       0.0990      -5.4910
  14601.5000       8.4710       0.1440      35.0640      23.1200     107.3200     775.6970     415.7510       0.0790      -5.9050
