#------------------------------------------------------------------------------
#
#   Created by  : [OpenWorks] Log Export Utility (LEXP)
#   Created on  : 2003-07-22 09:27:44
#   Project     : AAPG_DAN
#   User        : DAK
#   Interpreter : DAK1
#
#------------------------------------------------------------------------------
~VERSION INFORMATION
VERS. 2.0 : CWLS Log ASCII Standard - version 2.0
WRAP.  NO : One line per depth step
~WELL INFORMATION
#MNEMONIC   .UNIT                                           VALUE :DESCRIPTION
#------------------------------------------------------------------------------
STRT        .FT                                         1810.0000 :START DEPTH
STOP        .FT                                         1990.0000 :STOP DEPTH
STEP        .FT                                            0.5000 :STEP
NULL        .                                           -999.2500 :NULL VALUE
COMP        .                                        Asquith AAPG :COMPANY
WELL        .                                          Case Study :WELL
FLD         .                                             UNKNOWN :FIELD
LOC         .                                             UNKNOWN :LOCATION
CNTY        .                                             UNKNOWN :COUNTY
STAT        .                                             UNKNOWN :STATE
CTRY        .                                             UNKNOWN :COUNTRY
SRVC        .                                             UNKNOWN :SERVICE COMPANY
DATE        .                                             UNKNOWN :LOG DATE
UWI         .                                        Case Study 5 :UNIQUE WELL ID
XCOORD      .                                            0.000000 :SURFACE X
YCOORD      .                                            0.000000 :SURFACE Y
LAT         .                                            3.442337 :LATITUDE
LON         .                                         -105.983204 :LONGITUDE
ELEV        .FT                                       -98765.0000 :SURFACE ELEV
ELEV_TYPE   .                                                  NA :ELEV TYPE
~CURVE INFORMATION
#MNEMONIC.UNIT        API CODE       : CURVE DESCRIPTION
#------------------------------------------------------------------------------
DEPTH    .FT                         : Measured Depth
CALI     .inches      UNKNOWN        : CALI:CDL/DSN/GR:r1:MAIN:v1 
CILD     .S/m         UNKNOWN        : CILD:IES/GR:r1:MAIN:v1 
DPHI     .v/v_decimal UNKNOWN        : DPHI:CDL/DSN/GR:r1:MAIN:v1 
DRHO     .g/cm3       UNKNOWN        : DRHO:CDL/DSN/GR:r1:MAIN:v1 
GR       .API         UNKNOWN        : GR:CDL/DSN/GR:r1:MAIN:v1 
ILD      .ohm.m       UNKNOWN        : ILD:IES/GR:r1:MAIN:v1 
NPHI     .v/v_decimal UNKNOWN        : NPHI:CDL/DSN/GR:r1:MAIN:v1 
RHOB     .g/cm3       UNKNOWN        : RHOB:CDL/DSN/GR:r1:MAIN:v1 
SFLA     .ohm.m       UNKNOWN        : SFLA:IES/GR:r1:MAIN:v1 
SP       .mV          UNKNOWN        : SP:IES/GR:r1:MAIN:v1 
~A     DEPTH         CALI         CILD         DPHI         DRHO           GR          ILD         NPHI         RHOB         SFLA           SP
# ...
   1922.0000       7.9090      53.0940       0.7194      -0.0210      80.7350      21.5730       0.5620       1.4630      32.4680     -70.2000
   1922.5000       7.9500      57.0860       0.6321      -0.0180      89.4680      19.6170       0.5610       1.6070      29.4170     -73.4150
   1923.0000       7.9840      62.6750       0.6182       0.0110      84.6730      18.5700       0.5520       1.6300      25.1590     -76.5430
   1923.5000       7.9790      66.6670       0.5745       0.0010      78.5150      16.4500       0.5370       1.7020      21.8580     -78.9780
   1924.0000       7.9460      72.2550       0.3964      -0.0060      70.2220      14.5140       0.5120       1.9960      18.8870     -80.4190
   1924.5000       7.9140      78.0720       0.2933       0.0090      70.6310      13.6580       0.4000       2.1660      16.5350     -82.7640
   1925.0000       7.8790      82.9200       0.1406       0.0180      71.2220      13.3220       0.4110       2.4180      15.8490     -84.2030
   1925.5000       7.8770      86.6270       0.1418       0.0130      72.4170      12.4970       0.2650       2.4160      15.6360     -84.7370
   1926.0000       7.8780      89.0220       0.1503       0.0050      71.0630      11.8450       0.2520       2.4020      16.0330     -85.0550
   1926.5000       7.9150      90.2200       0.1570       0.0060      69.8660      11.6990       0.2520       2.3910      16.6110     -85.4330
   1927.0000       7.9470      90.6190       0.1624       0.0080      71.2480      11.7760       0.2610       2.3820      16.8490     -85.5800
   1927.5000       7.9410      89.8200       0.1667       0.0130      71.9000      12.1440       0.2630       2.3750      17.1110     -86.0470
   1928.0000       7.8390      89.0220       0.1733       0.0130      72.1870      12.0840       0.2660       2.3640      16.4730     -86.4580
   1928.5000       7.8080      87.8240       0.1697       0.0140      73.1480      12.0890       0.2740       2.3700      15.7380     -88.1090
   1929.0000       7.8030      86.2280       0.1612       0.0130      70.3180      12.3020       0.2760       2.3840      15.6650     -89.3420
   1929.5000       7.8010      85.0300       0.1612       0.0100      68.1350      12.4970       0.2710       2.3840      15.6700     -90.8110
   1930.0000       7.8100      83.4330       0.1642       0.0080      66.1330      12.7050       0.2670       2.3790      15.6890     -91.8120
   1930.5000       7.8160      80.9950       0.1642       0.0090      66.4280      12.8770       0.2600       2.3790      15.6290     -92.9590
   1931.0000       7.8490      78.6430       0.1612       0.0130      68.0200      13.2290       0.2520       2.3840      16.0550     -93.9900
   1931.5000       7.8460      77.8440       0.1594       0.0230      70.7190      13.2310       0.2470       2.3870      16.5930     -94.7930
   1932.0000       7.8130      77.0460       0.1539       0.0520      72.5860      13.7300       0.2450       2.3960      16.9570     -95.4580
   1932.5000       7.8190      74.0520       0.1497       0.0580      73.5650      14.1400       0.2460       2.4030      17.5540     -96.3560
   1933.0000       7.7550      72.2550       0.1497       0.0580      74.6490      14.8440       0.2450       2.4030      17.9670     -96.7380
   1933.5000       7.7120      71.4570       0.1570       0.0390      73.8130      14.9420       0.2430       2.3910      18.1520     -97.0310
   1934.0000       7.7020      69.8600       0.1618       0.0240      75.7480      15.3150       0.2420       2.3830      18.4820     -97.3470
   1934.5000       7.6720      69.2080       0.1600       0.0160      75.4780      15.5470       0.2420       2.3860      18.6990     -97.7290
   1935.0000       7.6450      69.0620       0.1582       0.0210      75.4570      15.9530       0.2410       2.3890      19.1760     -98.0420
   1935.5000       7.6710      67.4650       0.1564       0.0270      76.7610      16.4400       0.2410       2.3920      19.3420     -98.1360
   1936.0000       7.6710      66.1400       0.1558       0.0450      77.3240      16.3820       0.2400       2.3930      19.6540     -97.8190
   1936.5000       7.6720      64.9180       0.1467       0.0560      75.2290      17.1280       0.2400       2.4080      19.9330     -97.5560
   1937.0000       7.6730      63.4730       0.1521       0.0620      74.1770      17.2400       0.2390       2.3990      20.0330     -97.0330
   1937.5000       7.6730      62.6750       0.1612       0.0570      74.8640      17.2970       0.2380       2.3840      20.1640     -96.5490
   1938.0000       7.6640      61.8760       0.1624       0.0410      75.3650      17.3090       0.2400       2.3820      20.4390     -95.6340
   1938.5000       7.6490      59.9730       0.1648       0.0220      73.8280      17.7050       0.2380       2.3780      21.6000     -94.4250
   1939.0000       7.6390      60.2790       0.1533       0.0200      75.3350      17.7360       0.2380       2.3970      22.1650     -91.5420
   1939.5000       7.6320      60.2790       0.1345       0.0430      73.5140      18.0530       0.2400       2.4280      23.2270     -89.7130
   1940.0000       7.6140      58.6830       0.1400       0.0570      72.7740      18.3780       0.2380       2.4190      23.1760     -86.6350
   1940.5000       7.6000      58.2840       0.1570       0.0390      75.2310      18.4440       0.2330       2.3910      23.0060     -85.1390
   1941.0000       7.5910      58.6830       0.1618       0.0520      73.7970      18.4530       0.2340       2.3830      22.0250     -83.9670
   1941.5000       7.6130      57.8840       0.1655       0.0370      72.6260      18.5280       0.2330       2.3770      21.2060     -83.2190
   1942.0000       7.6870      58.2830       0.1709       0.0240      74.8020      17.9650       0.2350       2.3680      20.7090     -82.8080
   1942.5000       7.6220      58.6830       0.1667       0.0220      76.6900      18.2330       0.2440       2.3750      20.4150     -82.7040
   1943.0000       7.6260      59.4810       0.1667       0.0180      74.6050      17.5290       0.2430       2.3750      20.4720     -83.0450
   1943.5000       7.6660      61.8760       0.1661       0.0160      73.9610      17.0100       0.2400       2.3760      20.3400     -84.3390
   1944.0000       7.6950      64.6710       0.1600       0.0170      74.3270      16.2850       0.2360       2.3860      19.7750     -85.4180
   1944.5000       7.6840      67.1990       0.1552       0.0190      75.3810      15.2800       0.2320       2.3940      18.6640     -86.4230
   1945.0000       7.6790      68.6630       0.1497       0.0270      75.9390      15.3340       0.2280       2.4030      17.5560     -87.4040
   1945.5000       7.6990      69.8600       0.1509       0.0310      76.5470      14.9380       0.2270       2.4010      16.6950     -88.1070
   1946.0000       7.7140      70.6590       0.1594       0.0350      77.3760      14.8940       0.2280       2.3870      16.4380     -88.6610
   1946.5000       7.7360      72.4550       0.1606       0.0400      79.0120      14.8610       0.2370       2.3850      16.5630     -89.4720
   1947.0000       7.7540      73.4530       0.1576       0.0300      82.5740      14.8190       0.2510       2.3900      17.0410     -89.4630
   1947.5000       7.7720      73.0540       0.1648       0.0260      84.6540      14.4330       0.2550       2.3780      17.5960     -89.5190
   1948.0000       7.7100      71.4570       0.1764       0.0250      81.8550      14.7420       0.2610       2.3590      17.7900     -89.4550
   1948.5000       7.6660      68.4630       0.1782       0.0370      76.4270      15.5050       0.2580       2.3560      18.6920     -89.7920
   1949.0000       7.6230      66.6670       0.1788       0.0350      73.5370      15.8750       0.2460       2.3550      19.1450     -89.8840
   1949.5000       7.5730      65.8680       0.1606       0.0320      71.9440      16.1090       0.2410       2.3850      19.2900     -88.7220
