#------------------------------------------------------------------------------
#
#   Created by  : [OpenWorks] Log Export Utility (LEXP)
#   Created on  : 2003-07-22 09:26:16
#   Project     : AAPG_DAN
#   User        : DAK
#   Interpreter : DAK1
#
#------------------------------------------------------------------------------
~VERSION INFORMATION
VERS. 2.0 : CWLS Log ASCII Standard - version 2.0
WRAP.  NO : One line per depth step
~WELL INFORMATION
#MNEMONIC   .UNIT                                           VALUE :DESCRIPTION
#------------------------------------------------------------------------------
STRT        .FT                                        14540.0000 :START DEPTH
STOP        .FT                                        14660.0000 :STOP DEPTH
STEP        .FT                                            0.5000 :STEP
NULL        .                                           -999.2500 :NULL VALUE
COMP        .                                        Asquith AAPG :COMPANY
WELL        .                                          Case Study :WELL
FLD         .                                             UNKNOWN :FIELD
LOC         .                                             UNKNOWN :LOCATION
CNTY        .                                             UNKNOWN :COUNTY
STAT        .                                             UNKNOWN :STATE
CTRY        .                                             UNKNOWN :COUNTRY
SRVC        .                                             UNKNOWN :SERVICE COMPANY
DATE        .                                             UNKNOWN :LOG DATE
UWI         .                                        Case Study 1 :UNIQUE WELL ID
XCOORD      .                                            0.000000 :SURFACE X
YCOORD      .                                            0.000000 :SURFACE Y
LAT         .                                            3.442337 :LATITUDE
LON         .                                         -105.983204 :LONGITUDE
ELEV        .FT                                       -98765.0000 :SURFACE ELEV
ELEV_TYPE   .                                                  NA :ELEV TYPE
~CURVE INFORMATION
#MNEMONIC.UNIT        API CODE       : CURVE DESCRIPTION
#------------------------------------------------------------------------------
DEPTH    .FT                         : Measured Depth
CALI     .inches      UNKNOWN        : CALI:CDL/DSN/GR:r1:MAIN:v1 
DPHI     .v/v_decimal UNKNOWN        : DPHI:CDL/DSN/GR:r1:MAIN:v1 
GR       .API         UNKNOWN        : GR:CDL/DSN/GR:r1:MAIN:v1 
GR       .API         UNKNOWN        : GR:DIL/GR:r1:MAIN:v1 
ILD      .ohm.m       UNKNOWN        : ILD:DIL/GR:r1:MAIN:v1 
ILM      .ohm.m       UNKNOWN        : ILM:DIL/GR:r1:MAIN:v1 
LL8      .ohm.m       UNKNOWN        : LL8:DIL/GR:r1:MAIN:v1 
NPHI     .v/v_decimal UNKNOWN        : NPHI:CDL/DSN/GR:r1:MAIN:v1 
SP       .mV          UNKNOWN        : SP:DIL/GR:r1:MAIN:v1 
~A     DEPTH         CALI         DPHI           GR           GR          ILD          ILM          LL8         NPHI           SP
  14540.0000      11.9630       0.2360      63.9580      65.1900       5.1130       5.0350       5.6920       0.2660       7.6240
  14540.5000      11.8970       0.2350      63.9580      64.7760       5.1920       5.1920       5.7800       0.2630       7.9540
  14541.0000      11.8640       0.2270      63.9580      61.8790       5.1920       5.1920       5.9600       0.2650       7.9540
  14541.5000      11.9970       0.1980      63.9580      57.3260       5.1920       5.1920       6.0520       0.2730       7.9540
  14542.0000      11.9300       0.1740      63.9580      55.2570       5.1130       5.1920       6.0520       0.2620       7.9540
  14542.5000      11.8940       0.1730      64.7050      55.1470       5.1390       5.1990       6.0860       0.2560       7.9520
  14543.0000      11.8890       0.1810      66.9500      54.8070       5.0350       5.0350       5.9600       0.2520       7.9560
  14543.5000      12.0610       0.1900      67.7240      53.8670       4.8830       5.0350       5.8690       0.2570       7.9700
  14544.0000      12.2300       0.1960      68.6790      52.7990       4.8090       4.9590       5.6920       0.2700       7.9490
  14544.5000      12.3550       0.1900      69.5000      55.0820       4.7360       4.9590       5.6060       0.2750       7.7720
  14545.0000      12.4680       0.1840      70.6690      58.0090       4.7360       4.9590       5.4170       0.2770       7.4540
  14545.5000      12.5640       0.1830      71.0400      59.8890       4.7360       4.8830       5.3540       0.2800       6.8220
  14546.0000      12.7660       0.1930      70.4560      61.0150       4.5230       4.8090       5.3540       0.2840       6.5640
  14546.5000      12.7480       0.2080      69.0380      60.2390       4.6640       4.6640       5.2720       0.2970       5.7390
  14547.0000      12.7220       0.2140      68.1510      58.9470       4.5930       4.6640       5.2720       0.2980       4.9570
  14547.5000      12.6130       0.2170      66.8740      58.5790       4.5230       4.5230       5.2720       0.2980       3.8090
  14548.0000      12.6640       0.2210      65.6300      60.0340       4.5230       4.4540       5.1920       0.2940       2.9410
  14548.5000      12.8220       0.2360      64.4680      61.0550       4.3870       4.4540       5.1130       0.2900       2.1710
  14549.0000      12.8720       0.2540      63.6300      61.0750       4.9590       4.3870       4.9590       0.2870       1.2940
  14549.5000      12.7180       0.2680      63.5630      60.0860       4.7360       4.4540       4.9590       0.2830       0.7170
  14550.0000      12.6860       0.2710      63.5370      59.7550       4.8090       4.5930       4.9590       0.2800       0.4890
  14550.5000      12.7400       0.2430      63.5610      60.5960       4.8830       4.5930       4.9590       0.2780      -0.0800
  14551.0000      12.8180       0.2230      64.2050      62.2960       4.6980       4.5930       5.1920       0.2760      -0.3110
  14551.5000      12.6030       0.2170      64.4450      63.0190       4.5930       4.6640       5.3540       0.2740      -0.3260
  14552.0000      12.4660       0.2200      64.4440      63.8990       4.6640       4.5930       5.5200       0.2720       0.0020
  14552.5000      12.4360       0.2200      64.3970      61.5990       4.5930       4.6640       5.5200       0.2720       0.0210
  14553.0000      12.6590       0.2170      64.3820      61.6130       4.8830       4.6640       5.4360       0.2720       0.0440
  14553.5000      12.7540       0.2290      64.1510      61.6460       4.8090       4.7360       5.3540       0.2720       0.0650
  14554.0000      12.6190       0.2550      63.8860      62.6970       4.8830       4.7360       5.3540       0.2740       0.3850
  14554.5000      12.0300       0.2690      63.1160      62.6610       5.1130       4.8090       5.4360       0.2750       0.3620
  14555.0000      12.0020       0.2440      62.3560      62.6890       4.8830       4.8830       5.8690       0.2760       0.3610
  14555.5000      11.9760       0.2310      62.3120      64.6000       4.9590       4.8830       6.1450       0.2740       0.3620
  14556.0000      12.0150       0.2200      62.3150      65.8050       5.1130       4.8830       6.2400       0.2710       0.3530
  14556.5000      12.0520       0.2440      62.6590      66.3730       5.1130       4.8830       6.4350       0.2680       0.1190
  14557.0000      12.0990       0.2760      62.9730      66.3830       5.0350       4.8090       6.7370       0.2680      -0.1420
  14557.5000      12.1620       0.2770      63.2850      66.0470       4.8830       4.6640       7.1630       0.2740      -0.3130
  14558.0000      12.1620       0.2450      63.5790      65.4110       4.6640       4.5230       7.3860       0.2940      -1.1380
  14558.5000      12.0700       0.2170      63.9470      64.1140       4.2540       4.3200       6.8410       0.3220      -1.7880
  14559.0000      12.4570       0.2090      63.9600      62.7180       4.0630       4.2540       6.3370       0.3400      -2.1340
  14559.5000      12.7420       0.2130      63.7260      61.9250       3.9400       4.1260       5.6920       0.3440      -2.3250
  14560.0000      13.0940       0.2980      62.8980      59.6510       3.7060       4.1260       4.9590       0.3320      -1.6310
  14560.5000      13.1150       0.3980      62.5170      55.5590       3.4860       4.0630       6.1450       0.3050      -1.2310
  14561.0000      12.3990       0.3750      60.4740      51.7500       3.3810       3.8800       6.6350       0.3010      -0.5890
  14561.5000      11.4930       0.3670      57.7280      49.6570       3.2780       3.3810       6.9470       0.3000      -0.3890
  14562.0000      10.9600       0.3730      52.5190      48.9900       3.0840       2.7700       5.4360       0.3000      -0.3330
  14562.5000      11.7600       0.4210      50.2950      49.7470       2.9000       2.5270       3.5400       0.3040      -0.0350
  14563.0000      12.4140       0.4420      49.1320      55.2640       2.8130       2.3760       2.7700       0.3160       0.0150
  14563.5000      13.3930       0.4540      54.7570      58.3210       2.6450       2.2700       2.6050       0.3560      -0.0300
  14564.0000      14.2680       0.4520      57.0800      60.2610       2.5270       2.2350       2.6450       0.3870      -0.5050
  14564.5000      14.8870       0.3700      61.3710      59.8910       2.4880       2.2700       2.8130       0.4270      -1.1900
  14565.0000      15.0560       0.3640      64.3750      58.6990       2.5270       2.3760       3.5400       0.4310      -2.1670
  14565.5000      15.0970       0.3450      65.2700      57.8080       2.6050       2.5270       4.0530       0.4270      -2.1940
  14566.0000      14.9400       0.3330      64.8280      63.8820       2.7280       2.6450       4.8090       0.4130      -2.6260
  14566.5000      14.1980       0.3340      63.9660      67.0450       2.8560       2.7700       4.9590       0.3970      -3.0240
  14567.0000      13.8470       0.3570      64.2230      69.6950       2.9450       2.8130       4.8830       0.3910      -3.2580
  14567.5000      13.7620       0.3700      65.5760      69.9540       2.9900       2.8130       4.3870       0.3880      -3.5330
  14568.0000      14.1040       0.3930      67.6260      66.7180       2.7700       2.6860       3.5940       0.3870      -3.3150
  14568.5000      13.6830       0.3950      69.0550      65.0130       2.7280       2.4880       3.1310       0.3890      -2.9640
  14569.0000      13.4150       0.3770      66.3170      62.8010       2.7280       2.4130       2.9000       0.3910      -2.7560
  14569.5000      13.5730       0.3470      63.8770      57.5760       2.6450       2.4130       2.7280       0.3950      -2.2180
  14570.0000      13.8570       0.3140      61.3020      57.3330       2.6050       2.4880       2.6450       0.4260      -1.9500
  14570.5000      13.2690       0.2890      60.4060      57.5850       2.5270       2.6250       2.6050       0.4390      -1.0380
