#------------------------------------------------------------------------------
#
#   Created by  : [OpenWorks] Log Export Utility (LEXP)
#   Created on  : 2003-07-22 09:27:09
#   Project     : AAPG_DAN
#   User        : DAK
#   Interpreter : DAK1
#
#------------------------------------------------------------------------------
~VERSION INFORMATION
VERS. 2.0 : CWLS Log ASCII Standard - version 2.0
WRAP.  NO : One line per depth step
~WELL INFORMATION
#MNEMONIC   .UNIT                                           VALUE :DESCRIPTION
#------------------------------------------------------------------------------
STRT        .FT                                        10880.0000 :START DEPTH
STOP        .FT                                        11010.0000 :STOP DEPTH
STEP        .FT                                            0.5000 :STEP
NULL        .                                           -999.2500 :NULL VALUE
COMP        .                                        Asquith AAPG :COMPANY
WELL        .                                          Case Study :WELL
FLD         .                                             UNKNOWN :FIELD
LOC         .                                             UNKNOWN :LOCATION
CNTY        .                                             UNKNOWN :COUNTY
STAT        .                                             UNKNOWN :STATE
CTRY        .                                             UNKNOWN :COUNTRY
SRVC        .                                             UNKNOWN :SERVICE COMPANY
DATE        .                                             UNKNOWN :LOG DATE
UWI         .                                        Case Study 3 :UNIQUE WELL ID
XCOORD      .                                            0.000000 :SURFACE X
YCOORD      .                                            0.000000 :SURFACE Y
LAT         .                                            3.442337 :LATITUDE
LON         .                                         -105.983204 :LONGITUDE
ELEV        .FT                                       -98765.0000 :SURFACE ELEV
ELEV_TYPE   .                                                  NA :ELEV TYPE
~CURVE INFORMATION
#MNEMONIC.UNIT        API CODE       : CURVE DESCRIPTION
#------------------------------------------------------------------------------
DEPTH    .FT                         : Measured Depth
DT       .us/ft       UNKNOWN        : DT:IES/GR:r1:MAIN:v1 
IL       .ohm.m       UNKNOWN        : IL:IES/GR:r1:MAIN:v1 
SN       .ohm.m       UNKNOWN        : SN:IES/GR:r1:MAIN:v1 
SP       .mV          UNKNOWN        : SP:IES/GR:r1:MAIN:v1 
~A     DEPTH           DT           IL           SN           SP
# ...
  10942.0000      96.6490       1.5080       3.2830     -34.9000
  10942.5000      96.6490       1.5550       3.3890     -36.0560
  10943.0000      96.6490       1.6280       3.4370     -36.8430
  10943.5000      96.3140       1.6780       3.4890     -37.1360
  10944.0000      95.6450       1.7570       3.4890     -36.5630
  10944.5000      94.6420       1.8670       3.5430     -36.4450
  10945.0000      93.3040       1.9250       3.6530     -37.0210
  10945.5000      91.6320       1.9850       3.8240     -38.3070
  10946.0000      90.6290       2.1100       3.9420     -39.4920
  10946.5000      91.2980       2.3120       4.0190     -41.0240
  10947.0000      93.3040       2.4570       4.0640     -42.5750
  10947.5000      95.9800       2.4570       4.0030     -43.5220
  10948.0000     100.3280       2.3830       3.8820     -44.1600
  10948.5000     102.0000       2.2080       3.7850     -44.3710
  10949.0000     103.3380       2.0780       3.6530     -44.4220
  10949.5000     103.3380       1.9550       3.5430     -44.4880
  10950.0000     103.3380       1.8670       3.4640     -44.5410
  10950.5000     103.0030       1.7040       3.4120     -43.0260
  10951.0000     102.3340       1.5550       3.3850     -42.1650
  10951.5000     101.3310       1.4860       3.2830     -40.7020
  10952.0000     100.9970       1.4190       3.1840     -39.4410
  10952.5000     100.6620       1.3560       3.1840     -38.8430
  10953.0000     100.9970       1.3560       3.1840     -38.3920
  10953.5000     100.3280       1.3770       3.1840     -39.1400
  10954.0000      99.3240       1.3770       3.1360     -39.7900
  10954.5000      98.9900       1.3770       3.0890     -40.7940
  10955.0000      98.6560       1.3560       3.2330     -41.7130
  10955.5000      98.3210       1.3560       3.2830     -42.1620
  10956.0000      97.9870       1.3560       3.3330     -41.4200
  10956.5000      97.6520       1.3150       3.2720     -40.0830
  10957.0000      96.9830       1.2560       3.1840     -38.7970
  10957.5000      96.3140       1.2370       3.0890     -36.9870
  10958.0000      94.9770       1.2000       3.0420     -36.1320
  10958.5000      93.9730       1.1640       2.9520     -34.7620
  10959.0000      93.3040       1.1820       2.9060     -33.5180
  10959.5000      93.3040       1.1460       2.9060     -32.5030
  10960.0000      93.3040       1.1640       2.9200     -32.2870
  10960.5000      93.3040       1.1290       2.9510     -32.4560
  10961.0000      93.6390       1.1460       2.8620     -33.4380
  10961.5000      93.9730       1.1460       2.7760     -34.5080
  10962.0000      93.9730       1.1460       2.9510     -35.4800
  10962.5000      93.9730       1.1460       2.9200     -37.0690
  10963.0000      93.9730       1.1460       2.9060     -38.4820
  10963.5000      93.6390       1.1290       2.9960     -39.4730
  10964.0000      93.3040       1.1120       2.9960     -40.0510
  10964.5000      93.3040       1.1120       2.9290     -41.0120
  10965.0000      94.6420       1.0780       2.9060     -41.8690
  10965.5000      95.3110       1.0460       2.8620     -42.7920
  10966.0000      95.3110       0.9990       2.6930     -43.4720
  10966.5000      95.6450       0.9550       2.6280     -43.5070
  10967.0000      95.9800       0.8850       2.5720     -43.9570
  10967.5000      95.9800       0.8580       2.5330     -44.8150
  10968.0000      95.9800       0.8710       2.5330     -45.1120
  10968.5000      95.9800       0.8580       2.5330     -45.4460
  10969.0000      95.9800       0.7950       2.5720     -45.4390
  10969.5000      95.6450       0.7950       2.6120     -45.6540
  10970.0000      95.8130       0.8200       2.5720     -45.7220
  10970.5000      95.9800       0.7950       2.4950     -45.7580
  10971.0000      95.4780       0.7950       2.5330     -45.8210
  10971.5000      94.9770       0.7950       2.4950     -46.1040
  10972.0000      94.6420       0.7890       2.4950     -46.1610
  10972.5000      94.9770       0.8010       2.4250     -46.4220
  10973.0000      95.6450       0.8070       2.3830     -46.4080
  10973.5000      95.6450       0.8200       2.3830     -46.4010
  10974.0000      95.6450       0.8320       2.3830     -46.4000
  10974.5000      94.8090       0.8450       2.3830     -46.3970
  10975.0000      93.8060       0.8510       2.4020     -46.4120
  10975.5000      93.1370       0.8580       2.4200     -46.4870
  10976.0000      92.4680       0.8710       2.3830     -46.7630
  10976.5000      91.9670       0.8780       2.3390     -46.7350
  10977.0000      91.6320       0.8850       2.3120     -46.6470
  10977.5000      91.2980       0.8850       2.2940     -46.3330
  10978.0000      91.2980       0.8850       2.2260     -45.7780
  10978.5000      91.2980       0.9400       2.3120     -44.3650
  10979.0000      90.4620       0.9770       2.3300     -42.8870
  10979.5000      89.1240       1.0150       2.4200     -40.2340
  10980.0000      87.9530       1.0460       2.5710     -37.8730
  10980.5000      86.9500       1.2560       2.7980     -34.3120
  10981.0000      85.2780       1.3560       3.0420     -29.7370
  10981.5000      83.2710       1.4630       3.2830     -25.3860
  10982.0000      81.9330       1.5320       3.3850     -20.7200
  10982.5000      81.5990       1.6530       3.2960     -16.5300
  10983.0000      83.2710       1.6280       3.0890      -8.0560
  10983.5000      86.2810       1.6030       2.8620      -5.7130
  10984.0000      90.9630       1.5320       2.5720      -4.7300
  10984.5000      96.3140       1.3770       2.3070      -2.4790
  10985.0000     101.4980       1.2560       2.0780      -0.5610
  10985.5000     104.6760       1.1460       1.9550       0.4460
  10986.0000     106.3480       1.0150       1.8390       1.0370
  10986.5000     106.6820       0.9400       1.7740       1.4780
  10987.0000     106.0130       0.8980       1.7300       1.3650
  10987.5000     105.0100       0.8710       1.7570       1.0160
  10988.0000     104.3410       0.8580       1.7570       0.6770
  10988.5000     104.3410       0.8710       1.7070       0.6940
  10989.0000     104.0070       0.8710       1.6780       0.1630
  10989.5000     102.6690       0.8710       1.6780       0.4040
  10990.0000      97.1510       0.8910       1.7040       0.0800
  10990.5000      97.6520       0.9260       1.6530      -0.1880
  10991.0000      98.9900       0.9400       1.6280      -0.1980
  10991.5000      99.9930       0.9550       1.6030      -0.2230
  10992.0000     100.3280       0.9550       1.6030       0.0540
  10992.5000      98.6560       0.9400       1.6280      -0.4780
  10993.0000      95.9800       0.9260       1.6780      -0.5070
  10993.5000      94.9770       0.9120       1.7300      -0.5290
  10994.0000      94.6420       0.9840       1.8090      -0.5310
  10994.5000      94.9770       1.0150       1.8960      -0.5280
  10995.0000      94.3080       1.0460       1.9250      -0.5280
  10995.5000      93.3040       1.0780       1.8390      -0.5280
  10996.0000      92.6350       1.0950       1.8110      -0.5290
  10996.5000      91.9670       1.1120       1.8670      -0.5300
  10997.0000      92.6350       1.1290       2.0150      -0.5230
  10997.5000      96.9830       1.1290       2.1750      -0.4730
  10998.0000      98.9900       1.0950       2.1750       0.0610
  10998.5000     100.3280       1.0620       2.0460      -0.0790
  10999.0000     100.3280       1.0300       2.0150      -0.4510
  10999.5000      99.9930       0.9840       2.0460      -0.5230
  11000.0000     101.3310       0.9400       2.0390      -0.4050
  11000.5000     103.3380       0.9400       2.0230      -0.0730
  11001.0000     104.8430       0.9400       1.9700       0.2290
  11001.5000     105.3440       0.9400       1.9250       0.4840
  11002.0000     105.1770       0.9400       1.9550       0.5400
  11002.5000     104.3410       0.9050       1.9850       0.8890
  11003.0000     103.5050       0.8850       2.0310       0.9630
  11003.5000     103.1710       0.9190       2.0460       1.0350
