#------------------------------------------------------------------------------
#
#   Created by  : [OpenWorks] Log Export Utility (LEXP)
#   Created on  : 2003-07-22 09:27:56
#   Project     : AAPG_DAN
#   User        : DAK
#   Interpreter : DAK1
#
#------------------------------------------------------------------------------
~VERSION INFORMATION
VERS. 2.0 : CWLS Log ASCII Standard - version 2.0
WRAP.  NO : One line per depth step
~WELL INFORMATION
#MNEMONIC   .UNIT                                           VALUE :DESCRIPTION
#------------------------------------------------------------------------------
STRT        .FT                                        16250.0000 :START DEPTH
STOP        .FT                                        16480.0000 :STOP DEPTH
STEP        .FT                                            0.5000 :STEP
NULL        .                                           -999.2500 :NULL VALUE
COMP        .                                        Asquith AAPG :COMPANY
WELL        .                                          Case Study :WELL
FLD         .                                             UNKNOWN :FIELD
LOC         .                                             UNKNOWN :LOCATION
CNTY        .                                             UNKNOWN :COUNTY
STAT        .                                             UNKNOWN :STATE
CTRY        .                                             UNKNOWN :COUNTRY
SRVC        .                                             UNKNOWN :SERVICE COMPANY
DATE        .                                             UNKNOWN :LOG DATE
UWI         .                                        Case Study 6 :UNIQUE WELL ID
XCOORD      .                                            0.000000 :SURFACE X
YCOORD      .                                            0.000000 :SURFACE Y
LAT         .                                            3.442337 :LATITUDE
LON         .                                         -105.983204 :LONGITUDE
ELEV        .FT                                       -98765.0000 :SURFACE ELEV
ELEV_TYPE   .                                                  NA :ELEV TYPE
~CURVE INFORMATION
#MNEMONIC.UNIT        API CODE       : CURVE DESCRIPTION
#------------------------------------------------------------------------------
DEPTH    .FT                         : Measured Depth
CALI     .inches      UNKNOWN        : CALI:CDL/DSN/GR:r1:MAIN:v1 
DPHI     .v/v_decimal UNKNOWN        : DPHI:CDL/DSN/GR:r1:MAIN:v1 
DRHO     .g/cm3       UNKNOWN        : DRHO:CDL/DSN/GR:r1:MAIN:v1 
GR       .API         UNKNOWN        : GR:CDL/DSN/GR:r1:MAIN:v1 
ILD      .ohm.m       UNKNOWN        : ILD:DIL/SP:r1:MAIN:v1 
ILM      .ohm.m       UNKNOWN        : ILM:DIL/SP:r1:MAIN:v1 
NPHI     .v/v_decimal UNKNOWN        : NPHI:CDL/DSN/GR:r1:MAIN:v1 
SFL      .ohm.m       UNKNOWN        : SFL:DIL/SP:r1:MAIN:v1 
SP       .mV          UNKNOWN        : SP:DIL/SP:r1:MAIN:v1 
~A     DEPTH         CALI         DPHI         DRHO           GR          ILD          ILM         NPHI          SFL           SP
# ...
  16312.0000       8.0310       0.0392       0.1220      20.2180     560.5450     908.4230       0.0650     571.0510     -93.3410
  16312.5000       8.0290       0.0456       0.1140      18.7770     530.1720     740.5910       0.0660     603.7660     -94.2470
  16313.0000       8.0590       0.0632       0.0990      17.7940     492.2200     603.7660       0.0660     615.0820     -94.5610
  16313.5000       8.1070       0.0719       0.0860      16.4890     468.6550     468.6550       0.0670     567.6370     -94.4530
  16314.0000       8.1240       0.0778       0.0840      16.2630     416.4650     448.5760       0.0670     424.2710     -95.0820
  16314.5000       8.1830       0.0754       0.0770      16.5170     389.9500     465.5490       0.0690     388.0300     -96.1400
  16315.0000       8.2230       0.0743       0.0740      15.6850     365.7020     465.5490       0.0700     352.3690     -97.6250
  16315.5000       8.2450       0.0766       0.0710      15.6290     352.3690     474.2750       0.0810     352.3690     -97.6480
  16316.0000       8.2450       0.0848       0.0700      15.6580     339.5230     550.2320       0.0890     358.9730     -97.9110
  16316.5000       8.2110       0.0930       0.0680      15.6390     345.8860     674.9250       0.0920     372.5560     -98.2180
  16317.0000       8.2010       0.0982       0.0610      15.6110     365.7020     768.6120       0.0940     393.8990     -98.4730
  16317.5000       8.1830       0.1000       0.0550      15.7900     379.5380     996.8060       0.0950     424.2710     -98.6400
  16318.0000       8.1010       0.0889       0.0580      16.3960     386.6520    1156.4500       0.0940     465.5490     -99.4940
  16318.5000       8.0990       0.0696       0.0670      17.4940     422.2690    1156.4500       0.0770     484.5930    -100.4070
  16319.0000       8.0800       0.0573       0.0740      17.3670     456.9840    1114.2889       0.0720     510.8440    -101.5240
  16319.5000       8.0700       0.0789       0.0780      16.8580     488.9370    1114.2889       0.0690     520.4180    -101.7680
  16320.0000       8.0540       0.0959       0.0550      15.2220     487.6920    1178.3280       0.0660     530.1720    -102.8590
  16320.5000       8.0440       0.0982       0.0340      15.0200     424.2710    1292.7480       0.0620     540.1090    -103.7990
  16321.0000       8.0290       0.0901       0.0330      14.9440     349.4890    1257.7250       0.0590     550.3270    -103.1600
  16321.5000       8.0280       0.0713       0.0450      15.4900     315.2180     925.4490       0.0590     465.5490    -103.3230
  16322.0000       8.0570       0.0152       0.0940      16.1170     295.4970     607.5170       0.0590     428.2470    -102.6510
  16322.5000       8.1620      -0.0023       0.1500      16.7480     247.6120     312.9640       0.0590     393.8990    -103.0850
  16323.0000       8.1010      -0.0053       0.1660      17.5300     205.6850     261.9780       0.0610     349.4890    -103.2720
  16323.5000       8.0890      -0.0012       0.1750      18.4260     183.9670     209.5040       0.0680     292.6530    -103.2140
  16324.0000       8.0980       0.0088       0.1890      18.9380     161.6540     170.8270       0.0780     205.7910    -103.8320
  16324.5000       8.0970       0.0140       0.1990      19.9780     109.3790     158.5710       0.0800     183.9670    -104.7680
  16325.0000       8.0740       0.0205       0.2000      20.4830      97.8640     148.5990       0.0800     175.6290    -105.4660
  16325.5000       8.0280       0.0246       0.1920      22.1170      81.2650      85.9200       0.0780     164.5710    -105.6310
  16326.0000       8.0270       0.0287       0.1760      22.6580      72.7470      67.5390       0.0770     148.7530    -105.8190
  16326.5000       8.0550       0.0333       0.1710      22.7710      57.1050      56.0550       0.0680     111.4290    -106.2850
  16327.0000       8.0820       0.0404       0.1410      23.3850      52.0420      48.7860       0.0550      93.4440    -106.4490
  16327.5000       8.1270       0.0444       0.1350      22.9910      47.4270      44.8580       0.0540      82.7880    -106.4180
  16328.0000       8.2510       0.0538       0.1290      22.5370      43.2300      40.5180       0.0510      72.7090    -106.5490
  16328.5000       8.4110       0.0585       0.1240      21.3400      39.3900      37.9540       0.0460      67.4930    -107.1040
  16329.0000       8.3330       0.0602       0.1140      19.4430      36.9130      35.2370       0.0460      65.0320    -107.1540
  16329.5000       8.2800       0.0585       0.1080      18.7630      34.5890      34.5890       0.0460      63.8350    -107.8260
  16330.0000       8.2130       0.0585       0.1000      19.3030      33.3330      34.5890       0.0480      62.0850    -107.7030
  16330.5000       8.1500       0.0608       0.0960      20.4200      33.3280      34.5890       0.0490      58.1750    -107.3780
  16331.0000       8.0930       0.0626       0.0950      20.2900      33.9520      35.8970       0.0540      57.1050    -107.0370
  16331.5000       8.0130       0.0591       0.1000      19.9440      35.8970      37.2560       0.0560      57.1050    -106.3610
  16332.0000       8.0610       0.0591       0.1030      19.4150      36.5700      38.6650       0.0590      60.3770    -106.4540
  16332.5000       8.1210       0.0620       0.1000      19.4960      37.9540      40.1280       0.0600      66.2510    -105.9480
  16333.0000       8.1200       0.0719       0.0960      19.4800      39.3900      41.6460       0.0670      72.6970    -105.7210
  16333.5000       8.0960       0.0719       0.0960      19.1780      41.1290      43.4860       0.0680      78.7790    -106.6050
  16334.0000       8.1410       0.0673       0.0970      18.6240      43.2220      46.5550       0.0680      79.7690    -105.7750
  16334.5000       8.1250       0.0602       0.1020      18.1960      45.0890      47.9210       0.0640      77.9060    -106.1860
  16335.0000       8.0980       0.0538       0.1040      18.5180      49.2220      52.0420       0.0630      75.4470    -106.4310
  16335.5000       8.0860       0.0462       0.1050      18.8380      53.0170      54.0110       0.0640      74.0590    -106.4240
  16336.0000       8.0760       0.0433       0.0990      19.0800      56.0550      60.3770       0.0700      72.6970    -106.4590
  16336.5000       8.0590       0.0433       0.0940      20.0340      59.2660      66.2510       0.0730      76.8610    -106.3520
  16337.0000       8.0540       0.0474       0.0900      20.6640      63.8350      72.6970       0.0740      96.0470    -107.0650
  16337.5000       8.0270       0.0538       0.0880      20.8470      72.6970      92.5450       0.0760     126.8960    -107.2250
  16338.0000       8.1060       0.0608       0.0700      19.4570      79.7690     115.6450       0.0780     173.9990    -107.2620
  16338.5000       8.1590       0.0754       0.0570      17.3470      81.2650     132.5220       0.0790     228.8020    -107.5290
  16339.0000       8.0890       0.0795       0.0510      16.7620      78.3020     147.2200       0.0770     281.9830    -108.0010
  16339.5000       8.0390       0.0749       0.0510      16.2290      72.6970     144.5110       0.0710     271.7030    -108.0010
  16340.0000       8.0320       0.0725       0.0560      16.3150      65.7770     106.6510       0.0670     175.4840    -107.9370
  16340.5000       8.0290       0.0661       0.0830      16.2690      58.1750      66.2510       0.0660      65.0320    -106.7700
  16341.0000       8.0380       0.0608       0.0890      16.2720      53.0170      40.1280       0.0680      41.6460    -106.4190
  16341.5000       8.0790       0.0550       0.1140      16.4060      48.3160      33.9520       0.0710      38.6650    -106.4260
  16342.0000       8.0660       0.0614       0.1530      17.2910      40.1280      31.5220       0.0770      40.1280    -106.4320
  16342.5000       8.1090       0.0708       0.1940      18.7150      34.5890      29.8140       0.0790      42.4270    -106.4280
