#------------------------------------------------------------------------------
#
#   Created by  : [OpenWorks] Log Export Utility (LEXP)
#   Created on  : 2003-07-22 09:26:58
#   Project     : AAPG_DAN
#   User        : DAK
#   Interpreter : DAK1
#
#------------------------------------------------------------------------------
~VERSION INFORMATION
VERS. 2.0 : CWLS Log ASCII Standard - version 2.0
WRAP.  NO : One line per depth step
~WELL INFORMATION
#MNEMONIC   .UNIT                                           VALUE :DESCRIPTION
#------------------------------------------------------------------------------
STRT        .FT                                         9290.0000 :START DEPTH
STOP        .FT                                         9410.0000 :STOP DEPTH
STEP        .FT                                            0.5000 :STEP
NULL        .                                           -999.2500 :NULL VALUE
COMP        .                                        Asquith AAPG :COMPANY
WELL        .                                          Case Study :WELL
FLD         .                                             UNKNOWN :FIELD
LOC         .                                             UNKNOWN :LOCATION
CNTY        .                                             UNKNOWN :COUNTY
STAT        .                                             UNKNOWN :STATE
CTRY        .                                             UNKNOWN :COUNTRY
SRVC        .                                             UNKNOWN :SERVICE COMPANY
DATE        .                                             UNKNOWN :LOG DATE
UWI         .                                        Case Study 2 :UNIQUE WELL ID
XCOORD      .                                            0.000000 :SURFACE X
YCOORD      .                                            0.000000 :SURFACE Y
LAT         .                                            3.442337 :LATITUDE
LON         .                                         -105.983204 :LONGITUDE
ELEV        .FT                                       -98765.0000 :SURFACE ELEV
ELEV_TYPE   .                                                  NA :ELEV TYPE
~CURVE INFORMATION
#MNEMONIC.UNIT        API CODE       : CURVE DESCRIPTION
#------------------------------------------------------------------------------
DEPTH    .FT                         : Measured Depth
CALI     .inches      UNKNOWN        : CALI:BCS/GR:r1:MAIN:v1 
CALI     .inches      UNKNOWN        : CALI:CDL/DSN/GR:r1:MAIN:v1 
CALI     .inches      UNKNOWN        : CALI:DLL/GR:r1:MAIN:v1 
DPHI     .v/v_decimal UNKNOWN        : DPHI:CDL/DSN/GR:r1:MAIN:v1 
DRHO     .g/cm3       UNKNOWN        : DRHO:CDL/DSN/GR:r1:MAIN:v1 
DT       .us/ft       UNKNOWN        : DT:BCS/GR:r1:MAIN:v1 
GR       .API         UNKNOWN        : GR:BCS/GR:r1:MAIN:v1 
GR       .API         UNKNOWN        : GR:CDL/DSN/GR:r1:MAIN:v1 
GR       .API         UNKNOWN        : GR:DLL/GR:r1:MAIN:v1 
LLD      .ohm.m       UNKNOWN        : LLD:DLL/GR:r1:MAIN:v1 
LLS      .ohm.m       UNKNOWN        : LLS:DLL/GR:r1:MAIN:v1 
MSFL     .ohm.m       UNKNOWN        : MSFL:DLL/GR:r1:MAIN:v1 
NPHI     .v/v_decimal UNKNOWN        : NPHI:CDL/DSN/GR:r1:MAIN:v1 
RHOB     .g/cm3       UNKNOWN        : RHOB:PETROWORKS:r1:MAIN:v1 
~A     DEPTH         CALI         CALI         CALI         DPHI         DRHO           DT           GR           GR           GR          LLD          LLS         MSFL         NPHI         RHOB
# ...
   9311.0000       9.1410       8.2000       9.1119       0.0901       0.0900      62.2550      16.5990      14.5610      15.2040      37.9570      18.3930       2.6760       0.2490       2.5650
   9311.5000       9.2110       8.2500       9.1360       0.0596       0.0700      59.0710      18.7650      15.8360      16.0680      42.5500      18.1130       6.9310       0.2230       2.6140
   9312.0000       9.2830       8.3060       9.1957       0.0379       0.0700      58.2090      18.1650      15.9310      16.3580      63.2530      21.0960      14.1910       0.1880       2.6490
   9312.5000       9.3500       8.3830       9.2373       0.0161       0.0770      55.7510      16.2720      14.7350      15.7250      68.2640      23.3010      11.8240       0.1610       2.6840
   9313.0000       9.4320       8.4350       9.2638      -0.0081       0.0740      54.3620      14.1360      13.5160      14.2700      72.5580      31.3650       9.6940       0.1280       2.7230
   9313.5000       9.4650       8.4410       9.2596      -0.0118       0.0640      54.2950      11.8140      12.8740      13.6000      77.7050      37.1280       9.4020       0.1150       2.7290
   9314.0000       9.5140       8.4410       9.2778      -0.0155       0.1110      53.8970      11.0690      12.5540      14.1760      99.9790      43.2180      16.5290       0.0970       2.7350
   9314.5000       9.5290       8.4330       9.2954      -0.0186       0.1560      52.1120      10.8090      13.2490      14.8420     113.7650      53.5350      27.8400       0.0810       2.7400
   9315.0000       9.5290       8.4050       9.2764      -0.0255       0.1800      50.3150      12.1210      14.1690      15.4950     124.6650      64.7260      37.0890       0.0580       2.7510
   9315.5000       9.5300       8.4070       9.2081      -0.0354       0.1570      49.6520      12.3020      14.2780      16.1470     131.5110      70.9110      33.8500       0.0370       2.7670
   9316.0000       9.5310       8.4070       9.2757      -0.0453       0.1040      49.1210      12.4220      14.5760      16.8270     141.9300      74.2300      28.8590       0.0200       2.7830
   9316.5000       9.5600       8.4050       9.2934      -0.0509       0.0540      48.7740      13.1260      16.1260      17.5670     156.7410      78.3060      26.1170       0.0090       2.7920
   9317.0000       9.5240       8.4300       9.2948      -0.0413       0.0370      48.3250      14.9900      18.1190      19.2230     177.0780      85.1690      39.4400       0.0070       2.7765
   9317.5000       9.4780       8.4660       9.2945      -0.0317       0.0320      48.2590      18.3630      20.2710      21.0350     198.4810      90.5050      51.9270       0.0080       2.7610
   9318.0000       9.4170       8.4760       9.2943      -0.0267       0.0430      48.5900      21.2350      21.2330      21.8500     179.1330      83.3090      55.1410       0.0120       2.7530
   9318.5000       9.3660       8.4540       9.2946      -0.0280       0.0490      48.7840      20.7100      20.2160      22.3630     107.1080      58.1730      41.2860       0.0210       2.7550
   9319.0000       9.3450       8.3800       9.2899      -0.0304       0.0620      49.0130      20.1730      19.5190      20.9960      65.2720      47.8670      33.5980       0.0260       2.7590
   9319.5000       9.3110       8.3320       9.2846      -0.0205       0.1100      49.2090      19.4860      19.8050      20.8740      56.4250      26.9260      22.9590       0.0280       2.7430
   9320.0000       9.2950       8.2870       9.2792      -0.0062       0.1490      49.6780      19.7560      20.3970      21.3360      37.6590      16.5290      12.7550       0.0310       2.7200
   9320.5000       9.2670       8.3170       9.2739       0.0093       0.1050      50.1470      20.3890      20.9280      22.4950      31.8430      13.9770      11.1190       0.0360       2.6950
   9321.0000       9.2640       8.3400       9.2686       0.0193       0.0900      50.8460      20.5200      20.8940      21.8080      27.3400      12.9510       9.2600       0.0420       2.6790
   9321.5000       9.2270       8.3770       9.2629       0.0230       0.0770      51.6750      20.3160      20.8510      20.8690      22.0840      11.1190       5.7720       0.0480       2.6730
   9322.0000       9.2360       8.3810       9.2590       0.0211       0.0760      52.0730      21.0730      20.3060      20.9130      18.1130      10.1470       5.5980       0.0610       2.6760
   9322.5000       9.2450       8.4090       9.2511       0.0211       0.0770      52.3380      22.4860      20.1460      21.0870      17.5690       9.9930       6.9310       0.0670       2.6760
   9323.0000       9.2260       8.4080       9.2433       0.0112       0.0720      52.6040      22.3990      19.4710      21.7840      16.7830       9.8420       7.0370       0.0720       2.6920
   9323.5000       9.2210       8.4080       9.2357      -0.0068       0.0720      53.4990      20.1350      18.0020      20.7710      16.2790      10.1470       5.5980       0.0760       2.7210
   9324.0000       9.2110       8.4100       9.2282      -0.0106       0.0750      54.8260      18.3740      16.8940      19.8810      16.0330      10.4610       4.2540       0.0760       2.7270
   9324.5000       9.1980       8.3830       9.2362      -0.0068       0.0780      55.3900      17.2020      15.4630      19.0300      15.7900      10.6220       4.8060       0.0750       2.7210
   9325.0000       9.1850       8.3510       9.2448       0.0012       0.0800      54.3620      17.0710      15.8150      19.3960      16.2790      10.6220       5.1870       0.0790       2.7080
   9325.5000       9.1730       8.3070       9.2537       0.0143       0.0790      53.8970      18.8040      18.0360      18.7810      16.7830       9.8420       4.4540       0.0830       2.6870
   9326.0000       9.1620       8.2710       9.2626       0.0261       0.0760      53.5660      19.2580      19.6280      18.9530      17.5690       8.3220       3.8240       0.0950       2.6680
   9326.5000       9.1600       8.2740       9.2715       0.0329       0.0750      53.2340      19.7570      18.7830      18.8700      18.3910       8.0720       3.7660       0.1210       2.6570
   9327.0000       9.1580       8.2710       9.2806       0.0255       0.0760      53.0680      19.5000      18.8300      18.8910      19.5480       8.4500       4.3860       0.1250       2.6690
   9327.5000       9.1870       8.3160       9.2896       0.0075       0.0780      52.4710      19.5700      20.2060      18.8960      21.7500      12.5620       9.0590       0.1220       2.6980
   9328.0000       9.2010       8.3740       9.2891      -0.0112       0.0800      51.5090      20.2790      20.2140      18.8340      48.8030      23.4730      18.1130       0.0910       2.7280
   9328.5000       9.2290       8.4070       9.2739      -0.0242       0.0760      50.5140      22.2590      20.2740      18.2820      70.3700      25.3330      43.1980       0.0360       2.7490
   9329.0000       9.2300       8.4330       9.2618      -0.0248       0.0670      49.7180      23.8310      19.5960      18.2410      69.3050      23.8340      48.8030       0.0270       2.7500
   9329.5000       9.1920       8.4400       9.2597      -0.0242       0.0570      49.5520      23.1730      18.2970      18.3080      60.4170      20.7770      53.4790       0.0390       2.7490
   9330.0000       9.1970       8.3980       9.2502      -0.0068       0.0540      50.7130      22.3580      17.4720      18.5790      30.3930      10.3030      37.6590       0.0630       2.7210
   9330.5000       9.1680       8.2910       9.1718       0.0124       0.0560      53.8310      21.2200      16.8840      18.5480      18.3910       7.8920       2.3300       0.0930       2.6900
   9331.0000       9.1610       8.2230       9.1564       0.0261       0.0600      56.2190      21.1890      16.8730      18.8870      11.2950       6.8290       2.0150       0.1090       2.6680
   9331.5000       9.1490       8.1550       9.1249       0.0472       0.0670      57.8770      20.7090      17.0020      19.3850       9.2610       6.2770       2.0620       0.1230       2.6340
