#------------------------------------------------------------------------------
#
#   Created by  : [OpenWorks] Log Export Utility (LEXP)
#   Created on  : 2003-07-22 09:27:21
#   Project     : AAPG_DAN
#   User        : DAK
#   Interpreter : DAK1
#
#------------------------------------------------------------------------------
~VERSION INFORMATION
VERS. 2.0 : CWLS Log ASCII Standard - version 2.0
WRAP.  NO : One line per depth step
~WELL INFORMATION
#MNEMONIC   .UNIT                                           VALUE :DESCRIPTION
#------------------------------------------------------------------------------
STRT        .FT                                         7390.0000 :START DEPTH
STOP        .FT                                         7510.0000 :STOP DEPTH
STEP        .FT                                            0.5000 :STEP
NULL        .                                           -999.2500 :NULL VALUE
COMP        .                                        Asquith AAPG :COMPANY
WELL        .                                          Case Study :WELL
FLD         .                                             UNKNOWN :FIELD
LOC         .                                             UNKNOWN :LOCATION
CNTY        .                                             UNKNOWN :COUNTY
STAT        .                                             UNKNOWN :STATE
CTRY        .                                             UNKNOWN :COUNTRY
SRVC        .                                             UNKNOWN :SERVICE COMPANY
DATE        .                                             UNKNOWN :LOG DATE
UWI         .                                        Case Study 4 :UNIQUE WELL ID
XCOORD      .                                            0.000000 :SURFACE X
YCOORD      .                                            0.000000 :SURFACE Y
LAT         .                                            3.442337 :LATITUDE
LON         .                                         -105.983204 :LONGITUDE
ELEV        .FT                                       -98765.0000 :SURFACE ELEV
ELEV_TYPE   .                                                  NA :ELEV TYPE
~CURVE INFORMATION
#MNEMONIC.UNIT        API CODE       : CURVE DESCRIPTION
#------------------------------------------------------------------------------
DEPTH    .FT                         : Measured Depth
CILD     .S/m         UNKNOWN        : CILD:IES/GR:r1:MAIN:v1 
DT       .us/ft       UNKNOWN        : DT:BCS/GR:r1:MAIN:v1 
IL       .ohm.m       UNKNOWN        : IL:IES/GR:r1:MAIN:v1 
SN       .ohm.m       UNKNOWN        : SN:IES/GR:r1:MAIN:v1 
SP       .mV          UNKNOWN        : SP:IES/GR:r1:MAIN:v1 
~A     DEPTH         CILD           DT           IL           SN           SP
# ...
   7441.5000     146.3210      72.5590       6.9650      14.9750      -9.8230
   7442.0000     122.0740      60.8190       8.7320      20.2000     -13.5340
   7442.5000      96.1540      58.5120      10.2520      25.3080     -17.7590
   7443.0000      80.2680      53.2940      11.8370      29.6810     -23.4600
   7443.5000      75.2510      64.7320      12.7500      31.6140     -29.5420
   7444.0000      74.4150      70.2190      12.7370      32.7440     -33.6970
   7444.5000      80.2680      71.3380      12.3340      34.6490     -36.8790
   7445.0000      86.9570      75.2680      11.5150      34.0750     -39.2730
   7445.5000      92.8090      78.5790      10.6700      32.6330     -42.3280
   7446.0000      94.4820      80.4850      10.1540      30.9750     -43.2230
   7446.5000      94.4820      79.5820      10.2200      28.4030     -44.2790
   7447.0000      92.8090      77.9210      10.4740      27.4180     -45.0850
   7447.5000      91.9730      76.1710      10.5680      26.5740     -44.5750
   7448.0000      93.6450      76.0700      10.5710      25.7380     -42.7210
   7448.5000      94.4820      74.8660      10.0670      24.9700     -40.4790
   7449.0000      95.3180      73.9630       9.5600      23.3180     -39.0410
   7449.5000     101.1710      73.2610       9.0620      21.6910     -37.3130
   7450.0000     114.5480      73.5620       8.2150      16.2180     -32.7230
   7450.5000     131.2710      74.9670       7.3200      12.1900     -27.7520
   7451.0000     137.9600      76.6720       7.0860      10.4160     -22.3960
   7451.5000     139.6320      83.3440       6.8900       9.2990     -18.8200
   7452.0000     132.9430      86.3040       7.1130       8.8240     -14.4460
   7452.5000     129.5990      92.4750       7.4730       8.4290     -11.9980
   7453.0000     127.9260      96.2370       7.3620       8.0050     -10.4220
   7453.5000     127.9260      90.4180       7.2480       7.6740      -9.8070
   7454.0000     136.2880      81.3880       7.1340       7.6530      -8.8050
   7454.5000     141.3040      63.2270       7.0200       7.6180      -7.4440
   7455.0000     141.3040      62.3240       6.9120       7.7870      -6.4580
   7455.5000     136.2880      65.5230       6.8010       8.1220      -5.0600
   7456.0000     136.2880      67.5920       6.8720       7.8120      -5.0110
   7456.5000     139.6320      77.1240       6.7170       7.8110      -5.0100
   7457.0000     132.9430      91.7730       7.6340       7.9960      -5.5510
   7457.5000     126.2540      98.3440       8.0090       8.6880      -5.8660
   7458.0000     117.8930      99.5480       8.3660       9.4570      -6.4960
   7458.5000     116.2210      84.6990       8.5070      10.0710      -8.1330
   7459.0000     119.5650      83.3950       8.4000      10.8080      -9.1130
   7459.5000     126.2540      73.5620       7.6130      11.4060      -7.8380
   7460.0000     136.2880      70.8530       6.9950      11.6820      -6.5990
   7460.5000     153.8460      58.9130       6.1590       9.1090      -5.5190
   7461.0000     172.2410      78.6790       5.1340       7.7390      -4.4240
   7461.5000     207.3580      72.5590       4.7230       6.9900      -4.3040
   7462.0000     250.0000      85.1000       3.9540       6.0450      -4.8770
   7462.5000     267.5590      95.1710       3.4930       5.5240      -4.3240
   7463.0000     296.8230      99.6490       3.2300       5.3690      -4.3290
   7463.5000     312.7090     102.6590       3.0760       5.0300      -4.3400
   7464.0000     323.5790     103.0600       2.9290       4.7840      -4.3450
   7464.5000     332.7760      99.1510       2.9340       4.5410      -4.3120
   7465.0000     339.4650      97.8760       2.9160       4.4470      -4.1670
   7465.5000     341.9730      96.8390       2.7410       4.4520      -3.6230
   7466.0000     344.4820      92.8260       2.5900       4.3040      -3.6550
   7466.5000     346.9900      94.8330       2.6030       4.1300      -3.6740
   7467.0000     346.9900      94.3310       2.6020       4.1140      -3.6670
   7467.5000     346.9900      95.5350       2.5990       4.1140      -3.6600
   7468.0000     346.9900      95.8360       2.6000       4.1220      -3.6790
   7468.5000     344.4820      96.2370       2.6080       4.2870      -3.7110
   7469.0000     341.9730      96.4380       2.6120       4.3610      -3.1660
   7469.5000     336.9570      91.4210       2.7640       4.4480      -3.0240
   7470.0000     331.9400      93.3780       2.9020       4.4500      -2.9990
   7470.5000     330.2680      94.5820       2.9830       4.4460      -2.9770
   7471.0000     330.2680      94.3310       2.9920       4.4460      -2.8400
   7471.5000     331.9400      93.7290       2.9200       4.4460      -2.2770
   7472.0000     330.2680      95.8860       2.7780       4.4480      -2.2770
   7472.5000     328.5950      96.5890       2.6400       4.4490      -2.8400
   7473.0000     328.5950      93.4780       2.8210       4.4400      -2.9750
   7473.5000     331.9400      92.5750       2.9400       4.4070      -3.0000
   7474.0000     326.9230      92.2240       2.9310       4.2770      -3.0300
   7474.5000     326.9230      91.5220       2.9420       4.1530      -3.1530
   7475.0000     326.9230      90.3180       2.7680       4.1280      -3.6700
   7475.5000     328.5950      89.6150       2.5950       3.9820      -4.1900
   7476.0000     331.9400      93.6290       2.6070       3.9460      -4.2890
   7476.5000     335.2840      93.6790       2.6010       3.9420      -4.1910
   7477.0000     338.6290      96.2880       2.5990       3.9470      -3.6080
   7477.5000     341.9730      97.6420       2.6000       3.9320      -3.4760
   7478.0000     343.6450      97.0900       2.6000       4.1220      -3.2040
   7478.5000     343.6450      96.8390       2.5980       4.0990      -3.6260
   7479.0000     343.6450      97.7420       2.6030       4.1040      -3.6660
   7479.5000     340.3010      98.7460       2.6140       4.2850      -3.6690
   7480.0000     327.7590      99.3480       2.5820       4.4440      -3.6670
   7480.5000     318.5620      99.7490       2.9330       4.6250      -3.6670
   7481.0000     308.5280      93.3280       3.2200       4.5850      -3.6640
   7481.5000     301.8390      93.3280       3.3830       4.8640      -3.6670
   7482.0000     293.4780      94.1810       3.4340       4.9470      -3.6670
   7482.5000     281.7730      89.7660       3.4520       4.9500      -3.1050
   7483.0000     273.4110      93.3280       3.4860       5.1190      -3.6900
   7483.5000     261.7060      99.6490       3.6030       5.2890      -3.6120
   7484.0000     253.3440      96.9400       3.7960       5.3450      -4.2180
   7484.5000     248.3280      89.4150       3.8160       5.4410      -4.8460
   7485.0000     246.6560      87.0570       3.9410       5.3950      -5.7280
   7485.5000     244.9830      89.3140       4.1260       5.3590      -5.6700
   7486.0000     244.9830      87.3080       4.1050       5.2650      -5.3620
   7486.5000     250.0000      88.5120       4.1100       5.2840      -4.8220
   7487.0000     251.6720      88.3610       4.1110       5.2910      -4.2980
   7487.5000     253.3440      88.3110       4.1060       5.3250      -4.3110
   7488.0000     251.6720      92.0230       4.1220       5.5400      -4.2940
   7488.5000     248.3280      95.7860       3.9320       5.7380      -4.8340
   7489.0000     244.9830      96.2370       3.9480       5.7560      -4.9780
   7489.5000     243.3110      90.7190       3.9460       5.4270      -5.0120
   7490.0000     239.9670      88.6120       3.9400       5.5390      -5.0030
   7490.5000     238.2940      85.0000       3.9290       5.7780      -5.0000
   7491.0000     236.6220      82.6920       4.0580       5.7750      -5.0030
   7491.5000     236.6220      81.2880       4.2320       5.9660      -4.9880
   7492.0000     236.6220      85.0000       4.2800       5.9540      -5.3330
   7492.5000     238.2940      88.1100       4.2770       5.9670      -5.6780
