#------------------------------------------------------------------------------
#
#   Created by  : [OpenWorks] Log Export Utility (LEXP)
#   Created on  : 2003-07-22 09:26:16
#   Project     : AAPG_DAN
#   User        : DAK
#   Interpreter : DAK1
#
#------------------------------------------------------------------------------
~VERSION INFORMATION
VERS. 2.0 : CWLS Log ASCII Standard - version 2.0
WRAP.  NO : One line per depth step
~WELL INFORMATION
#MNEMONIC   .UNIT                                           VALUE :DESCRIPTION
#------------------------------------------------------------------------------
STRT        .FT                                        14540.0000 :START DEPTH
STOP        .FT                                        14660.0000 :STOP DEPTH
STEP        .FT                                            0.5000 :STEP
NULL        .                                           -999.2500 :NULL VALUE
COMP        .                                        Asquith AAPG :COMPANY
WELL        .                                          Case Study :WELL
FLD         .                                             UNKNOWN :FIELD
LOC         .                                             UNKNOWN :LOCATION
CNTY        .                                             UNKNOWN :COUNTY
STAT        .                                             UNKNOWN :STATE
CTRY        .                                             UNKNOWN :COUNTRY
SRVC        .                                             UNKNOWN :SERVICE COMPANY
DATE        .                                             UNKNOWN :LOG DATE
UWI         .                                        Case Study 1 :UNIQUE WELL ID
XCOORD      .                                            0.000000 :SURFACE X
YCOORD      .                                            0.000000 :SURFACE Y
LAT         .                                            3.442337 :LATITUDE
LON         .                                         -105.983204 :LONGITUDE
ELEV        .FT                                       -98765.0000 :SURFACE ELEV
ELEV_TYPE   .                                                  NA :ELEV TYPE
~CURVE INFORMATION
#MNEMONIC.UNIT        API CODE       : CURVE DESCRIPTION
#------------------------------------------------------------------------------
DEPTH    .FT                         : Measured Depth
CALI     .inches      UNKNOWN        : CALI:CDL/DSN/GR:r1:MAIN:v1 
DPHI     .v/v_decimal UNKNOWN        : DPHI:CDL/DSN/GR:r1:MAIN:v1 
GR       .API         UNKNOWN        : GR:CDL/DSN/GR:r1:MAIN:v1 
GR       .API         UNKNOWN        : GR:DIL/GR:r1:MAIN:v1 
ILD      .ohm.m       UNKNOWN        : ILD:DIL/GR:r1:MAIN:v1 
ILM      .ohm.m       UNKNOWN        : ILM:DIL/GR:r1:MAIN:v1 
LL8      .ohm.m       UNKNOWN        : LL8:DIL/GR:r1:MAIN:v1 
NPHI     .v/v_decimal UNKNOWN        : NPHI:CDL/DSN/GR:r1:MAIN:v1 
SP       .mV          UNKNOWN        : SP:DIL/GR:r1:MAIN:v1 
~A     DEPTH         CALI         DPHI           GR           GR          ILD          ILM          LL8         NPHI           SP
# ...
  14602.0000       8.4730       0.1360      27.0600      20.9730     221.7970    1108.6400     507.4070       0.0550      -6.3690
  14602.5000       8.4230       0.1320      21.2220      19.6580     225.2220     908.3810     628.8310       0.0550      -6.7500
  14603.0000       8.3870       0.1370      21.0590      18.6910     208.6090     619.2680     815.9790       0.0590      -7.3210
  14603.5000       8.3720       0.1590      21.7090      18.1120     142.2140     320.3970     980.7220       0.0650      -7.8100
  14604.0000       8.4110       0.1800      22.5610      18.1700     129.7210     262.5220    1091.7791       0.0680      -8.2890
  14604.5000       8.4120       0.2140      23.5790      19.7160     125.8050     278.8220    1125.7600       0.0690      -9.0760
  14605.0000       8.4430       0.2210      24.2320      21.0640     123.8920     310.7260    1125.7600       0.0660      -9.1830
  14605.5000       8.4430       0.2230      26.2680      23.0610     133.7580     335.4710    1125.7600       0.0650      -9.5610
  14606.0000       8.4130       0.2210      28.0810      24.6810     142.2140     335.4710    1143.1460       0.0640      -9.6200
  14606.5000       8.3820       0.2170      27.8400      25.5400     153.5400     274.8740    1178.7260       0.0640     -10.0570
  14607.0000       8.3460       0.2140      25.6800      23.9180     160.7640     239.4600    1253.2419       0.0640     -10.2050
  14607.5000       8.3430       0.2100      23.0580      22.2990     165.7670     215.1020    1272.5959       0.0640     -10.2050
  14608.0000       8.3430       0.2020      22.2400      21.2550     168.3270     208.6090    1234.1830       0.0640     -10.2490
  14608.5000       8.3450       0.1930      21.3440      20.4550     178.9690     202.3120    1312.2050       0.0660     -10.4350
  14609.0000       8.3770       0.1830      20.3420      18.0140     187.3890     208.6090    1438.5840       0.0700     -11.0290
  14609.5000       8.3740       0.1790      18.7730      17.2510     199.2350     215.1020    1483.3590       0.0800     -11.1560
  14610.0000       8.3780       0.1750      17.7670      17.4650     220.1100     232.2590    1577.3190       0.0860     -11.4600
  14610.5000       8.3420       0.1750      17.0100      16.7440     243.1580     287.8060    1729.0280       0.0910     -11.7990
  14611.0000       8.3180       0.2310      16.4230      16.7690     266.5770     320.3970    1729.0280       0.0920     -12.0710
  14611.5000       8.3100       0.2560      16.3320      17.1730     287.8060     340.6520    1676.8370       0.0920     -12.5990
  14612.0000       8.3080       0.2640      16.4530      17.1330     296.7640     391.0310    1626.2220       0.0910     -13.0230
  14612.5000       8.3090       0.2630      17.0130      16.1290     306.0010     403.2020    1553.1490       0.0890     -13.8330
  14613.0000       8.3090       0.2550      17.0000      15.6130     292.2510     409.4290    1460.8000       0.0870     -14.8200
  14613.5000       8.3060       0.2410      16.8820      15.9490     274.8740     403.2020    1312.2050       0.0860     -15.8100
  14614.0000       8.3780       0.2350      16.7590      16.5200     246.9130     367.7810    1125.7600       0.0850     -16.7100
  14614.5000       8.4090       0.2310      16.4110      17.2460     205.4360     315.5250     908.3810       0.0920     -17.4780
  14615.0000       8.4000       0.2260      16.7210      17.1850     193.2210     235.8180     678.9100       0.0970     -17.9820
  14615.5000       8.3640       0.2220      17.5800      18.0470     178.9690     215.1020     523.1990       0.1010     -18.9640
  14616.0000       8.3410       0.2250      18.3890      19.3590     170.9270     211.8300     477.2370       0.1030     -19.1630
  14616.5000       8.3060       0.2300      19.2180      22.0930     165.7670     215.1020     499.6900       0.1040     -19.4370
  14617.0000       8.3110       0.2340      19.5770      20.9240     160.7640     225.2220     515.2430       0.1040     -19.4490
  14617.5000       8.3170       0.2380      19.8430      19.8960     158.3190     243.1580     531.2790       0.1010     -19.4650
  14618.0000       8.3440       0.2440      21.1310      18.8270     158.3190     254.5980     515.2430       0.1000     -19.2110
  14618.5000       8.3920       0.2480      21.3870      17.7260     146.6410     243.1580     477.2370       0.0990     -19.4060
  14619.0000       8.3680       0.2470      21.4910      16.6600     125.8050     178.9690     435.3120       0.0970     -19.4550
  14619.5000       8.3800       0.2310      21.0400      16.7280      92.5950     153.5400     409.4290       0.0950     -19.2380
  14620.0000       8.3750       0.2310      20.5530      17.2060      85.7650     134.8230     332.9990       0.0930     -18.2640
  14620.5000       8.3750       0.2320      19.0830      16.7180      94.0250     118.3250     283.4290       0.0920     -16.3880
  14621.0000       8.3750       0.2190      17.9550      16.7730     101.5130     111.2900     239.4600       0.0970     -14.3040
  14621.5000       8.3750       0.2130      17.2620      16.7380     113.0080     107.9300     202.3120       0.1030     -11.6180
  14622.0000       8.3780       0.2130      17.2340      17.6590     109.5970     101.5130     190.2830       0.1130      -9.3100
  14622.5000       8.3460       0.2170      17.0500      19.9000      96.9510      96.9510     199.2350       0.1160      -7.3430
  14623.0000       8.3260       0.2350      16.8600      22.4180      73.5060      80.6650     243.1580       0.1180      -4.4930
  14623.5000       8.2910       0.2400      17.0850      24.1120      47.9680      54.8960     274.8740       0.1150      -0.3580
  14624.0000       8.2780       0.2290      17.3530      26.6810      21.5930      25.3690     262.5220       0.1120       3.2960
  14624.5000       8.3240       0.2180      19.4680      33.2120      12.4190      12.6290     118.3250       0.1090       7.9780
  14625.0000       8.6260       0.2010      24.0170      39.3780       8.3500       9.8830      56.7030       0.1070       9.6290
  14625.5000       9.3710       0.1990      32.8430      54.6550       7.8530       8.4780      10.5070       0.1080      10.5310
  14626.0000       9.9430       0.3020      46.4750      60.4040       7.3860       7.3860       6.8410       0.2360      11.1790
  14626.5000      10.5300       0.3510      57.4510      63.9510       7.0540       7.1630       6.5340       0.2990      11.6660
  14627.0000      11.0170       0.4480      64.3550      63.4960       6.6350       6.8410       6.5340       0.2990      11.9140
  14627.5000      11.1490       0.4620      66.6650      62.8410       6.2400       6.6350      11.8780       0.2990      12.1800
  14628.0000      11.0190       0.4240      66.5190      63.0470       5.8690       6.3370      14.4960       0.2990      12.2120
  14628.5000      10.4180       0.3030      63.3640      59.5670       5.1130       5.8690      16.6400       0.2520      12.5910
  14629.0000      10.3250       0.3000      58.1710      54.9540       4.4540       4.9590      13.2230       0.1870      12.5570
  14629.5000      12.4260       0.3010      53.5970      53.8760       4.0010       3.4330       9.1540       0.1530      12.9010
  14630.0000      14.4460       0.3950      51.2200      53.9550       3.5940       3.0840       4.6640       0.1480      13.2360
  14630.5000      14.6570       0.4370      52.0810      54.7660       3.2780       2.9900       3.1310       0.3240      13.2560
  14631.0000      14.4900       0.4390      56.0180      55.9780       3.1310       2.9000       2.9000       0.3670      12.9030
  14631.5000      14.3230       0.4340      58.6040      54.2490       3.0840       2.8560       2.9900       0.4170      12.5890
  14632.0000      14.2720       0.4110      59.7570      52.8730       2.9900       2.8560       3.2290       0.4350      12.0970
  14632.5000      13.7810       0.4050      60.2560      52.1340       2.9000       2.8560       3.4330       0.4440      11.2200
