#------------------------------------------------------------------------------
#
#   Created by  : [OpenWorks] Log Export Utility (LEXP)
#   Created on  : 2003-07-22 09:26:58
#   Project     : AAPG_DAN
#   User        : DAK
#   Interpreter : DAK1
#
#------------------------------------------------------------------------------
~VERSION INFORMATION
VERS. 2.0 : CWLS Log ASCII Standard - version 2.0
WRAP.  NO : One line per depth step
~WELL INFORMATION
#MNEMONIC   .UNIT                                           VALUE :DESCRIPTION
#------------------------------------------------------------------------------
STRT        .FT                                         9290.0000 :START DEPTH
STOP        .FT                                         9410.0000 :STOP DEPTH
STEP        .FT                                            0.5000 :STEP
NULL        .                                           -999.2500 :NULL VALUE
COMP        .                                        Asquith AAPG :COMPANY
WELL        .                                          Case Study :WELL
FLD         .                                             UNKNOWN :FIELD
LOC         .                                             UNKNOWN :LOCATION
CNTY        .                                             UNKNOWN :COUNTY
STAT        .                                             UNKNOWN :STATE
CTRY        .                                             UNKNOWN :COUNTRY
SRVC        .                                             UNKNOWN :SERVICE COMPANY
DATE        .                                             UNKNOWN :LOG DATE
UWI         .                                        Case Study 2 :UNIQUE WELL ID
XCOORD      .                                            0.000000 :SURFACE X
YCOORD      .                                            0.000000 :SURFACE Y
LAT         .                                            3.442337 :LATITUDE
LON         .                                         -105.983204 :LONGITUDE
ELEV        .FT                                       -98765.0000 :SURFACE ELEV
ELEV_TYPE   .                                                  NA :ELEV TYPE
~CURVE INFORMATION
#MNEMONIC.UNIT        API CODE       : CURVE DESCRIPTION
#------------------------------------------------------------------------------
DEPTH    .FT                         : Measured Depth
CALI     .inches      UNKNOWN        : CALI:BCS/GR:r1:MAIN:v1 
CALI     .inches      UNKNOWN        : CALI:CDL/DSN/GR:r1:MAIN:v1 
CALI     .inches      UNKNOWN        : CALI:DLL/GR:r1:MAIN:v1 
DPHI     .v/v_decimal UNKNOWN        : DPHI:CDL/DSN/GR:r1:MAIN:v1 
DRHO     .g/cm3       UNKNOWN        : DRHO:CDL/DSN/GR:r1:MAIN:v1 
DT       .us/ft       UNKNOWN        : DT:BCS/GR:r1:MAIN:v1 
GR       .API         UNKNOWN        : GR:BCS/GR:r1:MAIN:v1 
GR       .API         UNKNOWN        : GR:CDL/DSN/GR:r1:MAIN:v1 
GR       .API         UNKNOWN        : GR:DLL/GR:r1:MAIN:v1 
LLD      .ohm.m       UNKNOWN        : LLD:DLL/GR:r1:MAIN:v1 
LLS      .ohm.m       UNKNOWN        : LLS:DLL/GR:r1:MAIN:v1 
MSFL     .ohm.m       UNKNOWN        : MSFL:DLL/GR:r1:MAIN:v1 
NPHI     .v/v_decimal UNKNOWN        : NPHI:CDL/DSN/GR:r1:MAIN:v1 
RHOB     .g/cm3       UNKNOWN        : RHOB:PETROWORKS:r1:MAIN:v1 
~A     DEPTH         CALI         CALI         CALI         DPHI         DRHO           DT           GR           GR           GR          LLD          LLS         MSFL         NPHI         RHOB
# ...
   9332.0000       9.1600       8.1030       9.1273       0.0503       0.0780      58.1430      20.5820      18.0100      20.4060       9.1190       6.2290       2.4570       0.1410       2.6290
   9332.5000       9.1620       8.1500       9.1267       0.0509       0.0940      57.5040      21.1220      21.6010      22.4370       9.6930       7.3160       3.1860       0.1440       2.6280
   9333.0000       9.1600       8.2210       9.1264       0.0236       0.1380      56.4840      21.7550      25.1940      25.1430      15.9070       8.9910       3.9750       0.1410       2.6720
   9333.5000       9.1580       8.2900       9.1429       0.0130       0.1430      55.3570      24.3430      28.0210      30.0430      27.9790       9.9940       5.2890       0.1280       2.6890
   9334.0000       9.1850       8.3410       9.1603       0.0062       0.1420      54.2290      26.6350      28.8280      31.7790      31.8470      10.9510       9.9930       0.0980       2.7000
   9334.5000       9.1910       8.3930       9.1792      -0.0087       0.1370      53.2340      28.9420      29.1720      31.0540      33.8460       7.9510      14.6460       0.0840       2.7240
   9335.0000       9.2210       8.4090       9.1978       0.0360       0.1240      52.5700      30.5960      26.2660      26.7180      32.3480       6.8830      12.7560       0.0850       2.6520
   9335.5000       9.2250       8.4770       9.2280       0.0832       0.1140      53.9640      29.1420      22.1040      24.0030      25.9560       5.6430      11.5590       0.1510       2.5760
   9336.0000       9.2650       8.5290       9.2576       0.0876       0.1050      55.7550      23.3970      18.9970      21.0920      19.2170       5.3480       5.3480       0.1650       2.5690
   9336.5000       9.2580       8.5130       9.2596       0.0907       0.0950      57.6780      18.0220      18.4880      18.2430      13.8710       5.4720       1.0620       0.2260       2.5640
   9337.0000       9.2960       8.4950       9.2616       0.0901       0.0850      58.5410      16.8490      19.6100      16.6210      14.1930       6.2320       1.4530       0.2330       2.5650
   9337.5000       9.2930       8.4240       9.2612       0.0870       0.0490      57.6120      16.3630      22.6010      16.6520      17.1720       7.2020       2.0470       0.2400       2.5700
   9338.0000       9.2940       8.3740       9.2431       0.0863       0.0370      57.2800      19.3970      23.0940      24.5280      17.5690       7.7110       2.3480       0.2390       2.5710
   9338.5000       9.2950       8.3260       9.1665       0.0888       0.0290      58.0580      23.3690      22.6130      27.3710      17.5690       6.6710       2.4020       0.2290       2.5670
   9339.0000       9.2930       8.3070       9.1628       0.0807       0.0210      58.6730      25.8940      22.5830      26.8160      17.4360       6.5200       2.1920       0.2140       2.5800
   9339.5000       9.2860       8.3040       9.1469       0.0646       0.0200      59.3370      26.8180      22.6990      24.3710      18.3910       6.4710       2.1750       0.2060       2.6060
   9340.0000       9.2620       8.3430       9.1614       0.0186       0.0230      58.4080      27.8030      23.5750      23.5710      18.9610       7.2550       9.1190       0.1870       2.6800
   9340.5000       9.2430       8.4000       9.1573       0.0025       0.0330      56.2730      28.4400      24.4930      22.9330      24.5720       7.8300      14.8560       0.1440       2.7060
   9341.0000       9.2660       8.4070       9.1848      -0.0130       0.0400      53.9970      29.1290      25.6960      22.9500      42.9850       9.6930      15.3160       0.1070       2.7310
   9341.5000       9.2720       8.4090       9.1941      -0.0174       0.0490      52.5040      27.2200      28.9050      23.9420      52.6700      11.3510      10.1470       0.1040       2.7380
   9342.0000       9.2720       8.3850       9.2030      -0.0211       0.0620      51.7080      25.7200      32.0130      26.8490      69.3050      12.5620       8.3220       0.1030       2.7440
   9342.5000       9.2390       8.3410       9.2296      -0.0186       0.0760      51.7740      25.6320      36.1860      30.6290      70.3700      13.3520      11.4630       0.1020       2.7400
   9343.0000       9.1930       8.3140       9.2273      -0.0012       0.0790      51.3760      27.8740      37.4740      32.8810      69.3050      13.3520      12.9510       0.1040       2.7120
   9343.5000       9.1520       8.3080       9.2282       0.0366       0.0770      51.0120      30.6520      34.2930      31.9560      65.2040      12.1840      14.8560       0.1090       2.6510
   9344.0000       9.1030       8.3150       9.2361       0.0528       0.0720      51.7080      30.6830      30.6460      27.4770      38.4100       7.0370       6.4220       0.1160       2.6250
   9344.5000       9.1010       8.3480       9.2623       0.0627       0.0730      53.7810      30.1410      27.0610      24.5160      21.9800       4.6770       6.5200       0.1410       2.6090
   9345.0000       9.1620       8.4190       9.2584       0.0640       0.0950      55.8540      29.2320      26.6150      23.5510       6.4220       2.4200       1.8390       0.1690       2.6070
   9345.5000       9.2010       8.5230       9.2860       0.0671       0.1270      58.3420      28.7880      26.2930      25.7320       4.6620       2.3120       1.4860       0.1800       2.6020
   9346.0000       9.2540       8.7280       9.3018       0.0857       0.1810      59.9500      29.7580      25.5380      27.4490       4.0640       2.2080       1.1290       0.1980       2.5720
   9346.5000       9.2710       8.8720       9.3383       0.0907       0.2190      61.1770      30.4700      25.1310      28.0870       4.0640       2.2080       0.8070       0.2200       2.5640
   9347.0000       9.2950       8.9150       9.3945       0.0957       0.2190      61.6250      29.5290      23.2380      27.1150       4.8060       2.4570       0.9690       0.2300       2.5560
   9347.5000       9.3250       8.9210       9.4950       0.0944       0.2080      61.2600      28.2850      21.3920      24.7550       5.6840       2.8620       1.0950       0.2320       2.5580
   9348.0000       9.3620       8.9420       9.5937       0.0801       0.2000      60.8620      25.8450      20.3430      23.5980       6.9310       3.2330       1.1460       0.2260       2.5810
   9348.5000       9.3170       8.8720       9.5171       0.0720       0.1870      59.2370      24.5140      19.8040      22.3460       7.8300       3.7090       1.2000       0.2100       2.5940
   9349.0000       9.3980       8.7520       9.4260       0.0683       0.1440      57.8110      22.8590      20.0680      21.7950       8.9810       4.1270       2.0460       0.1910       2.6000
   9349.5000       9.3850       8.6510       9.3543       0.0640       0.0920      56.5170      22.8800      22.8450      23.4640      10.3030       4.3200       3.9500       0.1800       2.6070
   9350.0000       9.3580       8.5800       9.3760       0.0410       0.0520      54.6000      24.3090      29.9510      28.7610      11.8180       4.5920       6.3250       0.1730       2.6440
   9350.5000       9.3610       8.5420       9.3945       0.0137       0.0570      53.3330      30.5100      43.8840      34.6090      12.3710       4.8800       8.8460       0.1250       2.6880
   9351.0000       9.3620       8.5260       9.3945      -0.0137       0.1010      54.0300      36.4140      61.2250      47.9920      11.8180       4.8060       8.4500       0.1270       2.7320
   9351.5000       9.3620       8.5090       9.4392       0.0124       0.1110      55.8210      62.3680      77.5420      61.6130       8.7120       2.8190       6.3250       0.1400       2.6900
   9352.0000       9.3620       8.5730       9.4660       0.0280       0.1220      58.0600      71.8770      81.3660      68.7100       5.6840       2.4570       2.3830       0.1790       2.6650
   9352.5000       9.3450       8.5720       9.4390       0.0385       0.1260      60.2820      57.9940      82.3180      59.1930       4.8800       2.3470       1.7840       0.2420       2.6480
