#------------------------------------------------------------------------------
#
#   Created by  : [OpenWorks] Log Export Utility (LEXP)
#   Created on  : 2003-07-22 09:27:44
#   Project     : AAPG_DAN
#   User        : DAK
#   Interpreter : DAK1
#
#------------------------------------------------------------------------------
~VERSION INFORMATION
VERS. 2.0 : CWLS Log ASCII Standard - version 2.0
WRAP.  NO : One line per depth step
~WELL INFORMATION
#MNEMONIC   .UNIT                                           VALUE :DESCRIPTION
#------------------------------------------------------------------------------
STRT        .FT                                         1810.0000 :START DEPTH
STOP        .FT                                         1990.0000 :STOP DEPTH
STEP        .FT                                            0.5000 :STEP
NULL        .                                           -999.2500 :NULL VALUE
COMP        .                                        Asquith AAPG :COMPANY
WELL        .                                          Case Study :WELL
FLD         .                                             UNKNOWN :FIELD
LOC         .                                             UNKNOWN :LOCATION
CNTY        .                                             UNKNOWN :COUNTY
STAT        .                                             UNKNOWN :STATE
CTRY        .                                             UNKNOWN :COUNTRY
SRVC        .                                             UNKNOWN :SERVICE COMPANY
DATE        .                                             UNKNOWN :LOG DATE
UWI         .                                        Case Study 5 :UNIQUE WELL ID
XCOORD      .                                            0.000000 :SURFACE X
YCOORD      .                                            0.000000 :SURFACE Y
LAT         .                                            3.442337 :LATITUDE
LON         .                                         -105.983204 :LONGITUDE
ELEV        .FT                                       -98765.0000 :SURFACE ELEV
ELEV_TYPE   .                                                  NA :ELEV TYPE
~CURVE INFORMATION
#MNEMONIC.UNIT        API CODE       : CURVE DESCRIPTION
#------------------------------------------------------------------------------
DEPTH    .FT                         : Measured Depth
CALI     .inches      UNKNOWN        : CALI:CDL/DSN/GR:r1:MAIN:v1 
CILD     .S/m         UNKNOWN        : CILD:IES/GR:r1:MAIN:v1 
DPHI     .v/v_decimal UNKNOWN        : DPHI:CDL/DSN/GR:r1:MAIN:v1 
DRHO     .g/cm3       UNKNOWN        : DRHO:CDL/DSN/GR:r1:MAIN:v1 
GR       .API         UNKNOWN        : GR:CDL/DSN/GR:r1:MAIN:v1 
ILD      .ohm.m       UNKNOWN        : ILD:IES/GR:r1:MAIN:v1 
NPHI     .v/v_decimal UNKNOWN        : NPHI:CDL/DSN/GR:r1:MAIN:v1 
RHOB     .g/cm3       UNKNOWN        : RHOB:CDL/DSN/GR:r1:MAIN:v1 
SFLA     .ohm.m       UNKNOWN        : SFLA:IES/GR:r1:MAIN:v1 
SP       .mV          UNKNOWN        : SP:IES/GR:r1:MAIN:v1 
~A     DEPTH         CALI         CILD         DPHI         DRHO           GR          ILD         NPHI         RHOB         SFLA           SP
# ...
   1866.0000       8.7340     216.7660       0.2812       0.0270      83.4980       4.8630       0.5230       2.1860       5.4370     -39.5620
   1866.5000       8.7400     216.2480       0.2721       0.0320      85.2290       4.9050       0.5250       2.2010       5.3490     -39.7970
   1867.0000       8.7040     215.1700       0.2624       0.0360      86.5340       4.9440       0.5220       2.2170       5.3590     -39.8530
   1867.5000       8.7020     214.3710       0.2533       0.0330      86.6210       4.9920       0.5120       2.2320       5.3630     -40.2030
   1868.0000       8.7410     212.7740       0.2600       0.0250      87.8710       5.0450       0.5080       2.2210       5.2800     -40.2520
   1868.5000       8.7130     208.2830       0.2485       0.0080      90.4660       5.0960       0.4990       2.2400       4.9190     -40.3430
   1869.0000       8.6750     203.9920       0.2048      -0.0060      92.5640       5.1460       0.4900       2.3120       4.9770     -40.1930
   1869.5000       8.6310     200.0000       0.1703      -0.0060      94.0960       5.1960       0.4810       2.3690       4.9560     -40.7370
   1870.0000       8.6640     200.0000       0.1570       0.0000      95.5040       5.2470       0.4760       2.3910       4.9570     -40.5470
   1870.5000       8.6350     199.0430       0.1370       0.0080      96.7970       5.2960       0.4370       2.4240       4.9640     -40.9970
   1871.0000       8.6070     198.4030       0.1255       0.0040      95.4060       5.3530       0.4130       2.4430       4.9560     -41.3900
   1871.5000       8.5750     197.6050       0.1200       0.0010      94.1490       5.3910       0.4070       2.4520       4.9620     -41.4360
   1872.0000       8.5440     196.8060       0.1170       0.0030      92.5190       5.4360       0.4000       2.4570       4.9630     -41.7590
   1872.5000       8.5140     193.6130       0.1109       0.0090      91.3450       5.4770       0.3690       2.4670       4.9400     -42.2030
   1873.0000       8.4990     191.6170       0.1018       0.0130      93.3830       5.5230       0.3530       2.4820       5.1580     -42.5550
   1873.5000       8.4960     189.6210       0.0976       0.0170      94.8860       5.5590       0.3450       2.4890       5.3770     -42.9480
   1874.0000       8.5300     188.4230       0.0964       0.0160      96.2810       5.6080       0.3460       2.4910       5.3510     -43.3370
   1874.5000       8.5130     184.8300       0.0903       0.0120      95.5670       5.6590       0.3470       2.5010       5.3550     -43.9010
   1875.0000       8.4970     180.0400       0.0933       0.0100      93.9510       5.6580       0.3440       2.4960       5.3590     -44.2620
   1875.5000       8.4630     176.0480       0.1018       0.0110      93.9910       5.7950       0.3380       2.4820       5.3370     -44.3570
   1876.0000       8.4650     166.8660       0.1018       0.0100      95.7420       5.4880       0.3360       2.4820       5.7020     -44.3860
   1876.5000       8.4660     155.6890       0.0988       0.0040      97.4330       6.2630       0.3370       2.4870       6.5120     -44.5400
   1877.0000       8.4660     145.3090       0.0988       0.0030      98.0210       6.8230       0.3370       2.4870       6.6080     -44.6520
   1877.5000       8.4650     137.7250       0.0982       0.0080      97.0950       7.4580       0.3330       2.4880       7.0390     -44.6400
   1878.0000       8.4650     130.1400       0.0970       0.0080      97.8330       8.1150       0.3180       2.4900       7.6440     -44.5870
   1878.5000       8.4690     122.5550       0.0988       0.0050      93.4280       8.9240       0.3140       2.4870       8.2160     -43.8620
   1879.0000       8.4360     114.9700       0.0994       0.0010      90.1850       9.6430       0.3140       2.4860       8.9530     -43.8730
   1879.5000       8.4320     109.7800       0.1042      -0.0030      88.6210      10.2500       0.3170       2.4780       9.3930     -43.8400
   1880.0000       8.4300     105.7880       0.0994      -0.0030      86.9090      10.5270       0.3070       2.4860      10.2110     -43.8360
   1880.5000       8.4310     101.7960       0.0879       0.0080      85.1690      10.5280       0.2840       2.5050      11.3230     -43.8910
   1881.0000       8.4310     100.9980       0.0788       0.0100      82.9370      10.2470       0.2780       2.5200      12.1230     -43.5250
   1881.5000       8.4290     101.7960       0.0818       0.0060      81.5290       9.7970       0.2830       2.5150      12.6220     -43.4550
   1882.0000       8.4470     103.3930       0.0842       0.0050      81.9230       9.7020       0.2900       2.5110      12.9290     -43.4420
   1882.5000       8.4390     103.3930       0.0830       0.0060      85.0080       9.8000       0.2950       2.5130      12.8170     -43.4580
   1883.0000       8.3990     100.9980       0.0794       0.0120      85.6710      10.2450       0.2940       2.5190      12.1870     -43.4520
   1883.5000       8.3970     100.2000       0.0733       0.0150      84.6770      10.5200       0.2890       2.5290      11.8900     -43.4500
   1884.0000       8.3960      97.8040       0.0752       0.0170      84.3200      10.5470       0.2850       2.5260      12.0960     -43.4500
   1884.5000       8.3970      98.1960       0.0667       0.0160      83.5720      10.2050       0.2790       2.5400      12.4430     -43.4710
   1885.0000       8.3890      98.6030       0.0582       0.0150      81.2360      10.0620       0.2690       2.5540      13.3570     -43.2540
   1885.5000       8.3710     101.7960       0.0558       0.0130      79.0650       9.5680       0.2660       2.5580      13.6960     -43.0360
   1886.0000       8.3530     107.3850       0.0558       0.0100      76.0790       9.3020       0.2660       2.5580      13.7070     -43.0570
   1886.5000       8.3360     113.2630       0.0588       0.0050      72.7920       8.2800       0.2720       2.5530      12.2540     -43.0580
   1887.0000       8.3190     119.3610       0.0776       0.0010      73.3140       7.8700       0.2820       2.5220      11.1090     -43.0550
   1887.5000       8.3020     132.1360       0.1006       0.0020      78.2180       7.3770       0.3000       2.4840       9.3850     -43.0470
   1888.0000       8.2940     140.1200       0.1194       0.0080      82.2980       7.3860       0.3070       2.4530       8.8980     -43.1860
   1888.5000       8.3140     149.7140       0.1327       0.0040      91.1000       7.0110       0.3830       2.4310       8.1340     -43.4440
   1889.0000       8.3270     158.5360       0.1261      -0.0020      95.3770       6.9500       0.3820       2.4420       8.0520     -43.4490
   1889.5000       8.3340     165.6690       0.1115       0.0020      99.4090       6.9330       0.3750       2.4660       6.9290     -43.4540
   1890.0000       8.3480     167.2650       0.1000       0.0020     100.3430       6.9460       0.3510       2.4850       6.9440     -43.3880
   1890.5000       8.3640     167.2650       0.1024       0.0010      97.2780       6.9530       0.3420       2.4810       7.2390     -43.1380
   1891.0000       8.3680     166.8660       0.1067      -0.0040      96.7350       6.9350       0.3420       2.4740       7.3520     -43.3120
   1891.5000       8.3970     166.4670       0.1091      -0.0020      96.1500       6.8930       0.3430       2.4700       7.3550     -43.0070
   1892.0000       8.4220     169.2610       0.1006       0.0000      95.8900       6.3200       0.3440       2.4840       7.2400     -43.0300
   1892.5000       8.4580     174.0520       0.1000       0.0010      95.4710       6.0670       0.3440       2.4850       6.9540     -42.7270
   1893.0000       8.4650     180.0400       0.1073       0.0010      95.4130       5.6380       0.3450       2.4730       6.6270     -42.5000
   1893.5000       8.4670     188.0240       0.1115       0.0010      94.8570       5.3530       0.3470       2.4660       6.5640     -41.7290
