#------------------------------------------------------------------------------
#
#   Created by  : [OpenWorks] Log Export Utility (LEXP)
#   Created on  : 2003-07-22 09:27:44
#   Project     : AAPG_DAN
#   User        : DAK
#   Interpreter : DAK1
#
#------------------------------------------------------------------------------
~VERSION INFORMATION
VERS. 2.0 : CWLS Log ASCII Standard - version 2.0
WRAP.  NO : One line per depth step
~WELL INFORMATION
#MNEMONIC   .UNIT                                           VALUE :DESCRIPTION
#------------------------------------------------------------------------------
STRT        .FT                                         1810.0000 :START DEPTH
STOP        .FT                                         1990.0000 :STOP DEPTH
STEP        .FT                                            0.5000 :STEP
NULL        .                                           -999.2500 :NULL VALUE
COMP        .                                        Asquith AAPG :COMPANY
WELL        .                                          Case Study :WELL
FLD         .                                             UNKNOWN :FIELD
LOC         .                                             UNKNOWN :LOCATION
CNTY        .                                             UNKNOWN :COUNTY
STAT        .                                             UNKNOWN :STATE
CTRY        .                                             UNKNOWN :COUNTRY
SRVC        .                                             UNKNOWN :SERVICE COMPANY
DATE        .                                             UNKNOWN :LOG DATE
UWI         .                                        Case Study 5 :UNIQUE WELL ID
XCOORD      .                                            0.000000 :SURFACE X
YCOORD      .                                            0.000000 :SURFACE Y
LAT         .                                            3.442337 :LATITUDE
LON         .                                         -105.983204 :LONGITUDE
ELEV        .FT                                       -98765.0000 :SURFACE ELEV
ELEV_TYPE   .                                                  NA :ELEV TYPE
~CURVE INFORMATION
#MNEMONIC.UNIT        API CODE       : CURVE DESCRIPTION
#------------------------------------------------------------------------------
DEPTH    .FT                         : Measured Depth
CALI     .inches      UNKNOWN        : CALI:CDL/DSN/GR:r1:MAIN:v1 
CILD     .S/m         UNKNOWN        : CILD:IES/GR:r1:MAIN:v1 
DPHI     .v/v_decimal UNKNOWN        : DPHI:CDL/DSN/GR:r1:MAIN:v1 
DRHO     .g/cm3       UNKNOWN        : DRHO:CDL/DSN/GR:r1:MAIN:v1 
GR       .API         UNKNOWN        : GR:CDL/DSN/GR:r1:MAIN:v1 
ILD      .ohm.m       UNKNOWN        : ILD:IES/GR:r1:MAIN:v1 
NPHI     .v/v_decimal UNKNOWN        : NPHI:CDL/DSN/GR:r1:MAIN:v1 
RHOB     .g/cm3       UNKNOWN        : RHOB:CDL/DSN/GR:r1:MAIN:v1 
SFLA     .ohm.m       UNKNOWN        : SFLA:IES/GR:r1:MAIN:v1 
SP       .mV          UNKNOWN        : SP:IES/GR:r1:MAIN:v1 
~A     DEPTH         CALI         CILD         DPHI         DRHO           GR          ILD         NPHI         RHOB         SFLA           SP
# ...
   1838.0000       8.3970     194.4110       0.1958       0.0240     127.8670       4.8830       0.3960       2.3270       6.2410     -39.5280
   1838.5000       8.3970     181.2380       0.2200       0.0440     129.6630       4.9300       0.4450       2.2870       6.6520     -39.4480
   1839.0000       8.3960     171.2570       0.1691       0.0490     129.2950       5.3420       0.4530       2.3710       7.0370     -39.6860
   1839.5000       8.3960     158.4830       0.1261       0.0330     123.7680       5.8350       0.3900       2.4420       7.6070     -39.9040
   1840.0000       8.3970     142.2300       0.1121       0.0230     116.4060       6.7190       0.3560       2.4650       8.4340     -39.8760
   1840.5000       8.3970     125.9770       0.0952       0.0050     108.3200       8.0780       0.3600       2.4930      10.3790     -39.8790
   1841.0000       8.3960     110.9780       0.0758      -0.0060     102.4360       8.9140       0.3700       2.5250      13.4630     -39.8870
   1841.5000       8.3950     100.9980       0.0533      -0.0070      97.9840       9.6340       0.3790       2.5620      16.7790     -39.8790
   1842.0000       8.3650      95.5090       0.0442      -0.0080      93.1750      10.1320       0.3270       2.5770      17.2760     -39.8640
   1842.5000       8.3400      93.0140       0.0358      -0.0050      89.4890      10.6160       0.3040       2.5910      17.2230     -39.6330
   1843.0000       8.3280      93.0140       0.0448       0.0030      89.1370      11.0380       0.2980       2.5760      16.5590     -39.4940
   1843.5000       8.3720      93.0140       0.0515       0.0060      89.7250      11.3730       0.2900       2.5650      15.7780     -39.4820
   1844.0000       8.3980      90.7190       0.0582       0.0070      90.7520      11.9660       0.2860       2.5540      15.1670     -39.4620
   1844.5000       8.3970      88.2240       0.0703      -0.0020      91.8260      12.1370       0.2830       2.5340      14.8670     -39.2410
   1845.0000       8.3960      84.2320       0.0855      -0.0220      91.7970      12.8730       0.2810       2.5090      14.8820     -39.0870
   1845.5000       8.3960      81.8360       0.1133      -0.0280      93.1190      12.9210       0.2860       2.4630      15.1360     -39.0870
   1846.0000       8.4140      81.8360       0.1697      -0.0400      91.4020      12.3370       0.2960       2.3700      17.2040     -39.1280
   1846.5000       8.4320      89.8200       0.3327      -0.0360      85.1780      11.4230       0.4000       2.1010      18.9010     -39.5730
   1847.0000       8.4310      97.0060       0.3952      -0.0230      81.2740      10.4100       0.3950       1.9980      18.4300     -39.8620
   1847.5000       8.4310     110.5790       0.3903       0.0090      74.6940       9.3600       0.4100       2.0060      16.6550     -39.9550
   1848.0000       8.4310     129.7410       0.5642       0.0070      68.6900       8.0700       0.4480       1.7190      12.4540     -40.3510
   1848.5000       8.4310     148.9020       0.6321       0.0150      65.0520       7.3980       0.5540       1.6070       8.9290     -40.5460
   1849.0000       8.4310     169.2610       0.6170       0.0160      73.5860       6.4700       0.5590       1.6320       6.8040     -40.8720
   1849.5000       8.4210     187.2260       0.5515       0.0080      83.3640       6.0710       0.5400       1.7400       5.3460     -41.1810
   1850.0000       8.4100     196.7070       0.4224       0.0050      95.6100       5.7070       0.3980       1.9530       5.3780     -41.5350
   1850.5000       8.4030     206.1880       0.2030       0.0000     108.4990       5.6490       0.4130       2.3150       5.0470     -41.8250
   1851.0000       8.3680     217.5650       0.1406       0.0400     117.2790       4.6450       0.1990       2.4180       4.9450     -41.9070
   1851.5000       8.3780     219.1620       0.1364       0.0350     124.6890       4.6100       0.1940       2.4250       4.9010     -41.5520
   1852.0000       8.3880     215.5690       0.1297       0.0230     122.6220       4.3260       0.3140       2.4360       5.4470     -41.3430
   1852.5000       8.4010     205.5890       0.1242       0.0060     121.1540       4.5770       0.3210       2.4450       6.2030     -41.0950
   1853.0000       8.4170     194.8100       0.1176       0.0030     112.4360       4.8180       0.3260       2.4560       6.4090     -40.8040
   1853.5000       8.4340     185.6290       0.1133       0.0090     100.7950       5.2930       0.3290       2.4630       6.8680     -40.2150
   1854.0000       8.4620     180.0400       0.1067       0.0110      92.3320       5.3680       0.3370       2.4740       6.9660     -40.3070
   1854.5000       8.4400     180.3060       0.0933       0.0030      85.6070       5.3440       0.3390       2.4960       6.9370     -40.2000
   1855.0000       8.4290     181.6370       0.0873      -0.0030      81.5840       5.3940       0.3200       2.5060       6.9490     -39.7560
   1855.5000       8.4320     184.8300       0.0794      -0.0030      81.0580       5.0270       0.2950       2.5190       6.9600     -39.4720
   1856.0000       8.4300     193.6130       0.0830       0.0000      81.0420       4.7620       0.2790       2.5130       6.8520     -39.4800
   1856.5000       8.4260     199.2020       0.0939       0.0040      80.9260       4.5530       0.2730       2.4950       6.4760     -39.4840
   1857.0000       8.3940     204.7900       0.0970       0.0070      81.5200       4.3740       0.2700       2.4900       5.7970     -39.5640
   1857.5000       8.3970     207.1860       0.1079       0.0210      85.2840       4.1740       0.2800       2.4720       5.7760     -39.8870
   1858.0000       8.3970     206.7860       0.1412       0.0260      89.1750       4.1680       0.2710       2.4170       5.7400     -40.1030
   1858.5000       8.3990     207.9840       0.1727       0.0410      90.8710       4.1640       0.2520       2.3650       5.6830     -39.9780
   1859.0000       8.3970     210.7780       0.1939       0.0430      90.6190       4.1670       0.2380       2.3300       5.3070     -39.8820
   1859.5000       8.4720     215.1700       0.2291       0.0710      95.8190       4.1660       0.2220       2.2720       5.4450     -39.8660
   1860.0000       8.5010     217.9640       0.2764       0.0660     142.8890       4.1630       0.2110       2.1940       5.8700     -39.8940
   1860.5000       8.5360     219.1620       0.3115       0.0370     141.2120       4.2020       0.2290       2.1360       6.1780     -39.8750
   1861.0000       8.6450     219.1620       0.3042       0.0210      94.1770       4.2970       0.2520       2.1480       6.1170     -39.8840
   1861.5000       8.6810     217.5650       0.2764       0.0080     101.2210       4.3880       0.4120       2.1940       6.2070     -39.8850
   1862.0000       8.7100     218.3630       0.2297       0.0490      98.1730       4.4810       0.4690       2.2710       5.8240     -39.8640
   1862.5000       8.7030     224.7500       0.1885       0.0800     103.5880       4.5630       0.4840       2.3390       5.6870     -39.9220
   1863.0000       8.7350     229.5410       0.1836       0.0660     105.4300       4.6100       0.4680       2.3470       5.2970     -39.5580
   1863.5000       8.7390     233.5330       0.1964       0.0590     101.7710       4.6520       0.4440       2.3260       5.3800     -39.4860
   1864.0000       8.7460     236.7270       0.2182       0.0500      97.6530       4.6940       0.4520       2.2900       5.4280     -39.4730
   1864.5000       8.7450     231.5100       0.2545       0.0390      92.1190       4.7360       0.4700       2.2300       5.7960     -39.4900
   1865.0000       8.7690     225.5490       0.2855       0.0290      87.7200       4.7790       0.4870       2.1790       5.7240     -39.4860
   1865.5000       8.7630     219.9600       0.2855       0.0260      85.6130       4.8200       0.5070       2.1790       5.7970     -39.4740
