#------------------------------------------------------------------------------
#
#   Created by  : [OpenWorks] Log Export Utility (LEXP)
#   Created on  : 2003-07-22 09:27:56
#   Project     : AAPG_DAN
#   User        : DAK
#   Interpreter : DAK1
#
#------------------------------------------------------------------------------
~VERSION INFORMATION
VERS. 2.0 : CWLS Log ASCII Standard - version 2.0
WRAP.  NO : One line per depth step
~WELL INFORMATION
#MNEMONIC   .UNIT                                           VALUE :DESCRIPTION
#------------------------------------------------------------------------------
STRT        .FT                                        16250.0000 :START DEPTH
STOP        .FT                                        16480.0000 :STOP DEPTH
STEP        .FT                                            0.5000 :STEP
NULL        .                                           -999.2500 :NULL VALUE
COMP        .                                        Asquith AAPG :COMPANY
WELL        .                                          Case Study :WELL
FLD         .                                             UNKNOWN :FIELD
LOC         .                                             UNKNOWN :LOCATION
CNTY        .                                             UNKNOWN :COUNTY
STAT        .                                             UNKNOWN :STATE
CTRY        .                                             UNKNOWN :COUNTRY
SRVC        .                                             UNKNOWN :SERVICE COMPANY
DATE        .                                             UNKNOWN :LOG DATE
UWI         .                                        Case Study 6 :UNIQUE WELL ID
XCOORD      .                                            0.000000 :SURFACE X
YCOORD      .                                            0.000000 :SURFACE Y
LAT         .                                            3.442337 :LATITUDE
LON         .                                         -105.983204 :LONGITUDE
ELEV        .FT                                       -98765.0000 :SURFACE ELEV
ELEV_TYPE   .                                                  NA :ELEV TYPE
~CURVE INFORMATION
#MNEMONIC.UNIT        API CODE       : CURVE DESCRIPTION
#------------------------------------------------------------------------------
DEPTH    .FT                         : Measured Depth
CALI     .inches      UNKNOWN        : CALI:CDL/DSN/GR:r1:MAIN:v1 
DPHI     .v/v_decimal UNKNOWN        : DPHI:CDL/DSN/GR:r1:MAIN:v1 
DRHO     .g/cm3       UNKNOWN        : DRHO:CDL/DSN/GR:r1:MAIN:v1 
GR       .API         UNKNOWN        : GR:CDL/DSN/GR:r1:MAIN:v1 
ILD      .ohm.m       UNKNOWN        : ILD:DIL/SP:r1:MAIN:v1 
ILM      .ohm.m       UNKNOWN        : ILM:DIL/SP:r1:MAIN:v1 
NPHI     .v/v_decimal UNKNOWN        : NPHI:CDL/DSN/GR:r1:MAIN:v1 
SFL      .ohm.m       UNKNOWN        : SFL:DIL/SP:r1:MAIN:v1 
SP       .mV          UNKNOWN        : SP:DIL/SP:r1:MAIN:v1 
~A     DEPTH         CALI         DPHI         DRHO           GR          ILD          ILM         NPHI          SFL           SP
# ...
  16343.0000       8.1120       0.0883       0.1470      19.6630      28.7270      27.1700       0.0800      57.1050    -106.4210
  16343.5000       8.1490       0.0959       0.1190      20.1610      26.1800      25.6980       0.0800      58.1750    -106.4500
  16344.0000       8.1570       0.0947       0.1120      19.8810      24.7610      24.3060       0.0780      57.1050    -106.3960
  16344.5000       8.1680       0.0924       0.0980      19.2620      24.3060      22.9890       0.0770      42.4270    -106.4440
  16345.0000       8.2030       0.0889       0.0830      18.2900      23.4200      21.7430       0.0760      39.3900    -106.5840
  16345.5000       8.2010       0.0883       0.0770      18.0940      22.9890      20.9500       0.0760      38.6650    -107.1490
  16346.0000       8.1710       0.0854       0.0770      17.1770      21.7430      20.1870       0.0760      39.3900    -106.3130
  16346.5000       8.1240       0.0778       0.0800      17.3040      20.9500      19.8150       0.0740      41.6460    -106.4750
  16347.0000       8.0850       0.0708       0.0970      17.5700      20.5650      19.8150       0.0700      43.2220    -106.4140
  16347.5000       8.0400       0.0673       0.1050      17.6580      20.9500      20.5650       0.0690      41.6460    -106.4370
  16348.0000       8.0190       0.0661       0.1150      18.5730      21.7430      21.7430       0.0620      41.6460    -106.4180
  16348.5000       7.9840       0.0743       0.1170      19.4110      22.5660      22.9890       0.0590      44.8580    -106.4310
  16349.0000       7.9880       0.0807       0.1110      19.9950      23.4200      24.3060       0.0640      47.4270    -106.2660
  16349.5000       8.0160       0.0819       0.0970      20.6200      24.7610      27.6800       0.0660      53.0170    -105.8260
  16350.0000       8.0650       0.0725       0.0970      20.4780      26.1840      29.2700       0.0660      57.1150    -105.6160
  16350.5000       8.0820       0.0532       0.0960      19.8910      28.1980      31.5220       0.0640      61.5080    -105.6020
  16351.0000       8.1270       0.0333       0.1020      19.3270      28.9960      33.0210       0.0560      64.4340    -106.0020
  16351.5000       8.1700       0.0363       0.1140      18.0750      29.8140      33.3280       0.0400      65.0320    -106.5480
  16352.0000       8.2020       0.0351       0.1200      17.3340      28.9960      33.9520       0.0400      63.2480    -105.8230
  16352.5000       8.2030       0.0345       0.1230      17.4880      26.6700      33.9520       0.0410      59.2660    -106.2540
  16353.0000       8.1650       0.0316       0.1330      18.7200      24.3100      29.8340       0.0430      51.1200    -106.4160
  16353.5000       8.1620       0.0292       0.1360      18.9520      22.5660      25.6980       0.0450      40.8800    -106.4430
  16354.0000       8.1130       0.0287       0.1410      17.8670      21.1470      22.9930       0.0490      33.6400    -106.4650
  16354.5000       8.0730       0.0287       0.1550      18.9020      19.8150      20.9500       0.0720      32.1130    -107.0620
  16355.0000       8.0330       0.0298       0.1710      19.4440      18.4000      18.7450       0.0760      28.9960    -107.1920
  16355.5000       7.9730       0.0298       0.1860      19.9910      17.4000      18.0580       0.0810      28.1980    -107.3030
  16356.0000       7.9380       0.0322       0.2000      20.0760      16.6110      17.5630       0.0850      28.4630    -106.6180
  16356.5000       7.9100       0.0363       0.1980      20.1800      16.1540      16.4570       0.0870      29.8140    -107.0950
  16357.0000       7.8680       0.0474       0.1900      19.5950      16.0060      15.4270       0.0880      32.7140    -106.7830
  16357.5000       7.8570       0.0602       0.1810      19.4400      15.5650      14.7220       0.0850      32.1130    -106.4850
  16358.0000       7.8620       0.0614       0.1780      19.8550      15.1380      14.1850       0.0830      27.4340    -105.7340
  16358.5000       7.8560       0.0585       0.1750      21.0560      14.7220      13.6680       0.0820      25.2250    -105.0340
  16359.0000       7.8910       0.0567       0.1770      21.5160      14.0550      13.1720       0.0820      22.7770    -104.8150
  16359.5000       7.9140       0.0591       0.1820      22.1050      13.6680      12.2270       0.0880      19.8150    -104.7080
  16360.0000       7.9450       0.0684       0.1680      21.7940      13.4170      11.7810       0.0950      18.3970    -103.9550
  16360.5000       7.9760       0.0737       0.1570      21.5880      13.4170      11.1430       0.1000      17.7260    -104.0830
  16361.0000       7.9880       0.0719       0.1510      20.8630      13.4170      11.5640       0.1110      16.7660    -104.0620
  16361.5000       7.9960       0.0626       0.1550      20.7280      13.6680      12.2270       0.1210      17.0800    -103.9720
  16362.0000       8.0330       0.0608       0.1600      20.6520      14.1850      12.6900       0.1230      17.4000    -104.4560
  16362.5000       8.0270       0.0690       0.1620      20.2450      15.1380      16.1570       0.1240      18.2270    -103.8140
  16363.0000       8.0400       0.0795       0.1660      20.0190      16.7660      17.7260       0.1200      19.4510    -103.0470
  16363.5000       8.0760       0.0819       0.1670      18.9130      19.0930      19.0930       0.1150      20.5650    -102.3140
  16364.0000       8.0700       0.0865       0.1670      18.8590      25.2250      21.3430       0.1070      23.8580    -100.7940
  16364.5000       8.0750       0.1012       0.1490      18.7900      32.1130      24.7610       0.0970      35.8970    -100.1470
  16365.0000       8.0680       0.1006       0.1270      19.1140      36.9510      40.1350       0.0930      55.3650     -99.0160
  16365.5000       8.1140       0.0988       0.1000      20.0770      44.0320      44.0320       0.0810      76.8610     -98.5360
  16366.0000       8.1930       0.0591       0.0850      21.3160      48.3160      50.1450       0.0720      84.3390     -97.8380
  16366.5000       8.2340       0.0298       0.0870      21.5970      57.1050      60.3770       0.0680      85.9200     -97.7130
  16367.0000       8.2450       0.0164       0.0990      21.8080      61.5080      62.6610       0.0610      87.5300     -97.6750
  16367.5000       8.2440       0.0117       0.1270      21.9360      60.9420      65.0320       0.0600      89.1710     -97.7120
  16368.0000       8.2410       0.0023       0.1310      20.6050      57.1050      62.6610       0.0600      85.9200     -97.6170
  16368.5000       8.2480       0.0140       0.1350      18.4240      53.0170      59.2660       0.0700      76.8610     -96.4070
  16369.0000       8.2100       0.0310       0.1280      16.4360      51.0840      50.1450       0.0710      70.0460     -96.2270
  16369.5000       8.2000       0.0503       0.1160      16.2690      50.1450      45.6980       0.0820      68.7580     -95.3760
  16370.0000       8.2010       0.0678       0.0900      16.3950      50.1450      44.0320       0.0990      67.4930     -95.9150
  16370.5000       8.2010       0.0754       0.0640      17.7010      52.0420      47.4270       0.1100      70.0460     -95.2890
  16371.0000       8.2010       0.0766       0.0600      18.5660      55.0230      63.8350       0.1100      79.7690     -95.4460
  16371.5000       8.2010       0.0678       0.0500      18.0690      65.0320      79.7690       0.1060      92.5450     -94.6450
  16372.0000       8.2010       0.0608       0.0610      16.9980      75.4470      89.1710       0.1040     120.0210     -94.5440
  16372.5000       8.2010       0.0450       0.0810      16.4460     103.4520     111.4290       0.0970     147.2200     -94.4720
  16373.0000       8.2010       0.0415       0.0860      16.2250     122.2700     180.5820       0.0880     149.9790     -94.6140
  16373.5000       8.2000       0.0462       0.0870      16.3490     148.1320     241.6010       0.0870     152.7900     -93.8750
