#------------------------------------------------------------------------------
#
#   Created by  : [OpenWorks] Log Export Utility (LEXP)
#   Created on  : 2003-07-22 09:27:56
#   Project     : AAPG_DAN
#   User        : DAK
#   Interpreter : DAK1
#
#------------------------------------------------------------------------------
~VERSION INFORMATION
VERS. 2.0 : CWLS Log ASCII Standard - version 2.0
WRAP.  NO : One line per depth step
~WELL INFORMATION
#MNEMONIC   .UNIT                                           VALUE :DESCRIPTION
#------------------------------------------------------------------------------
STRT        .FT                                        16250.0000 :START DEPTH
STOP        .FT                                        16480.0000 :STOP DEPTH
STEP        .FT                                            0.5000 :STEP
NULL        .                                           -999.2500 :NULL VALUE
COMP        .                                        Asquith AAPG :COMPANY
WELL        .                                          Case Study :WELL
FLD         .                                             UNKNOWN :FIELD
LOC         .                                             UNKNOWN :LOCATION
CNTY        .                                             UNKNOWN :COUNTY
STAT        .                                             UNKNOWN :STATE
CTRY        .                                             UNKNOWN :COUNTRY
SRVC        .                                             UNKNOWN :SERVICE COMPANY
DATE        .                                             UNKNOWN :LOG DATE
UWI         .                                        Case Study 6 :UNIQUE WELL ID
XCOORD      .                                            0.000000 :SURFACE X
YCOORD      .                                            0.000000 :SURFACE Y
LAT         .                                            3.442337 :LATITUDE
LON         .                                         -105.983204 :LONGITUDE
ELEV        .FT                                       -98765.0000 :SURFACE ELEV
ELEV_TYPE   .                                                  NA :ELEV TYPE
~CURVE INFORMATION
#MNEMONIC.UNIT        API CODE       : CURVE DESCRIPTION
#------------------------------------------------------------------------------
DEPTH    .FT                         : Measured Depth
CALI     .inches      UNKNOWN        : CALI:CDL/DSN/GR:r1:MAIN:v1 
DPHI     .v/v_decimal UNKNOWN        : DPHI:CDL/DSN/GR:r1:MAIN:v1 
DRHO     .g/cm3       UNKNOWN        : DRHO:CDL/DSN/GR:r1:MAIN:v1 
GR       .API         UNKNOWN        : GR:CDL/DSN/GR:r1:MAIN:v1 
ILD      .ohm.m       UNKNOWN        : ILD:DIL/SP:r1:MAIN:v1 
ILM      .ohm.m       UNKNOWN        : ILM:DIL/SP:r1:MAIN:v1 
NPHI     .v/v_decimal UNKNOWN        : NPHI:CDL/DSN/GR:r1:MAIN:v1 
SFL      .ohm.m       UNKNOWN        : SFL:DIL/SP:r1:MAIN:v1 
SP       .mV          UNKNOWN        : SP:DIL/SP:r1:MAIN:v1 
~A     DEPTH         CALI         DPHI         DRHO           GR          ILD          ILM         NPHI          SFL           SP
# ...
  16436.0000       8.9270      -0.0421       0.0230     105.6700      35.2370      19.0930       0.1340      17.7260       5.4730
  16436.5000       8.9270      -0.0363       0.0200     107.2380      34.1350      18.3970       0.1420      15.5650       5.4530
  16437.0000       8.9350      -0.0327       0.0190     109.3190      34.5890      19.0930       0.1460      15.8570       5.4950
  16437.5000       8.9750      -0.0304       0.0190     110.6580      35.8970      22.1510       0.1540      53.0170       5.4630
  16438.0000       8.9730      -0.0211       0.0210     110.0630      40.1280      27.6800       0.1570      58.1750       5.5570
  16438.5000       9.0520      -0.0064       0.0240     111.1380      43.8250      28.5020       0.1580      61.2180       5.8320
  16439.0000       9.0450      -0.0047       0.0230     112.2220      49.2220      40.8800       0.1600      84.3390       6.1270
  16439.5000       9.0050      -0.0205       0.0160     113.3960      50.1450      56.0550       0.1630      84.3390       6.2800
  16440.0000       8.9360      -0.0251       0.0190     113.4030      51.5630      62.1060       0.1650      82.7880       6.2340
  16440.5000       8.8820      -0.0251       0.0270     113.8240      54.0110      67.4930       0.1640      78.3020       5.6230
  16441.0000       8.8570      -0.0211       0.0590     113.4730      55.0230      72.6970       0.1630      75.4470       5.5500
  16441.5000       8.8080      -0.0158       0.0720     110.9390      58.1750      76.8610       0.1620      74.0590       4.8280
  16442.0000       8.7960      -0.0135       0.0750     110.1750      60.3770      78.3020       0.1620      74.0590       4.5220
  16442.5000       8.8120      -0.0222       0.0740     111.9080      63.8350      74.0590       0.1620      75.4470       4.3370
  16443.0000       8.8240      -0.0170       0.0770     113.8520      66.2510      67.4930       0.1570      75.4470       4.1990
  16443.5000       8.8480      -0.0053       0.0820     114.5740      67.4930      63.8350       0.1540      76.8610       4.0090
  16444.0000       8.9670       0.0485       0.0870     113.2090      67.4930      65.0320       0.1500      76.8610       3.8470
  16444.5000       9.1400       0.1094       0.1480     111.5860      63.8350      61.5080       0.1580      75.4470       3.6770
  16445.0000       9.2770       0.2117       0.1310     111.4030      57.1050      43.2220       0.1750      72.6970       3.5060
  16445.5000       9.3550       0.4094       0.0650     113.0790      54.0110      37.9540       0.2540      67.4930       3.3380
  16446.0000       9.8270       0.4058       0.0620     113.3720      49.2220      34.5890       0.2560      65.0320       3.1680
  16446.5000      10.1940       0.3795       0.0600     114.1010      46.5550      32.7140       0.2590      62.6610       2.9990
  16447.0000      10.8330       0.2807       0.0780     115.3700      45.6980      33.3280       0.2470      57.1050       2.8290
  16447.5000      11.1020       0.2012       0.1220     117.0510      44.8580      34.5890       0.2160      56.0550       2.6600
  16448.0000      10.3850       0.0684       0.1870     118.8560      44.0320      40.8800       0.2030      56.0550       2.4910
  16448.5000       9.6460       0.0287       0.2530     119.6990      44.8580      43.2220       0.1940      56.0550       2.3210
  16449.0000       9.4580       0.0357       0.3450     120.1760      51.0840      53.0170       0.1930      58.1750       2.1510
  16449.5000       9.3270       0.0760       0.3340     119.5560      56.0550      55.0230       0.1970      58.1750       1.9890
  16450.0000       9.3080       0.1982       0.1490     120.3550      57.6400      57.1150       0.2130      58.1750       1.7970
  16450.5000       9.3200       0.1760       0.1600     121.5990      59.2660      96.0470       0.2170      62.6610       1.6660
  16451.0000       9.2450       0.1398       0.1520     123.3100      60.3770     122.2700       0.2150      67.4930       1.4970
  16451.5000       9.1060       0.0860       0.1730     127.2300      60.3770     134.1660       0.1970      70.0460       1.3760
  16452.0000       9.0220       0.0596       0.1890     131.0110      61.5080     155.6540       0.1870      68.7580       0.6300
  16452.5000       9.0130       0.0351       0.1990     135.5110      60.3770      97.8470       0.1870      67.4930       0.5990
  16453.0000       9.1390       0.0374       0.2080     136.5430      61.5080      61.5080       0.1900      66.2510      -0.1620
  16453.5000       9.1560       0.0444       0.2040     134.0420      62.6610      53.0170       0.1930      66.2510      -0.0840
  16454.0000       9.1450       0.0556       0.1880     130.4010      64.3740      50.6610       0.1960      67.4930       0.3060
  16454.5000       9.2250       0.0614       0.1720     127.6310      65.0320      50.1450       0.1930      67.4930       0.7550
  16455.0000       9.3040       0.0556       0.1710     130.0990      65.0320      52.0420       0.1910      68.7580       0.7220
  16455.5000       9.3660       0.0082       0.1720     134.3490      65.0320      55.0230       0.1870      68.7580       0.6560
  16456.0000       9.3120       0.0047       0.1960     137.4510      63.8350      56.0550       0.1840      68.7580       1.1440
  16456.5000       9.1770       0.0152       0.1980     140.6390      56.0550      57.1050       0.1800      70.0460       1.4980
  16457.0000       9.1240       0.0392       0.2250     142.7600      59.2660      56.0550       0.1800      71.3590       2.0610
  16457.5000       9.0940       0.0240       0.2340     140.9050      56.0550      51.0840       0.1790      71.3590       2.9480
  16458.0000       9.0940       0.2222       0.2130     135.3320      54.0110      46.5550       0.1800      71.3590       3.0930
  16458.5000       9.1480       0.2760       0.1120     129.4120      51.0840      35.2370       0.1840      71.3590       3.1530
  16459.0000       9.2910       0.3246       0.0610     123.4330      48.3160      34.5890       0.2370      70.0460       2.7070
  16459.5000       9.3570       0.3257       0.0070     120.9200      46.5550      35.8970       0.2420      67.4930       2.0800
  16460.0000       9.3560       0.1924       0.0160     121.7490      45.6980      44.0320       0.2480      65.0320       1.4930
  16460.5000       9.3180       0.0971       0.0520     127.2740      45.6980     115.6450       0.2470      63.8350       0.9710
  16461.0000       9.2140       0.0374       0.0840     133.1110      45.6980     149.9790       0.2330      62.6610       0.0220
  16461.5000       9.1030       0.0105       0.1030     136.1720      48.3160     201.8660       0.2020      63.8350      -0.8560
  16462.0000       9.0690       0.0058       0.1110     138.0690      50.1450     124.0470       0.1840      67.4930      -0.8520
  16462.5000       9.0320       0.0029       0.1080     139.4370      52.5300      56.0930       0.1780      71.3590      -0.8890
  16463.0000       9.0100       0.0047       0.1080     140.9030      55.0230      49.2220       0.1770      72.6970      -0.8600
  16463.5000       9.0160       0.0029       0.1180     142.1740      56.0550      48.3160       0.1790      72.6970      -0.8400
  16464.0000       9.0090      -0.0082       0.1310     141.3450      57.1050      49.2220       0.1810      68.7580      -0.0830
  16464.5000       9.0460      -0.0211       0.1610     140.2340      57.1050      50.1450       0.1800      66.2510      -0.2000
  16465.0000       9.0580      -0.0205       0.1750     139.7140      54.5170      57.1050       0.1810      63.8350       0.9370
  16465.5000       9.0530      -0.0146       0.1790     140.2800      52.0420      56.0550       0.1870      63.8350       2.0950
  16466.0000       9.0590      -0.0082       0.1830     140.8830      49.6830      52.0420       0.1930      63.8350       2.8980
  16466.5000       9.0220       0.0029       0.1800     141.8680      50.1450      50.1450       0.1970      63.8350       2.3670
