#------------------------------------------------------------------------------
#
#   Created by  : [OpenWorks] Log Export Utility (LEXP)
#   Created on  : 2003-07-22 09:28:06
#   Project     : AAPG_DAN
#   User        : DAK
#   Interpreter : DAK1
#
#------------------------------------------------------------------------------
~VERSION INFORMATION
VERS. 2.0 : CWLS Log ASCII Standard - version 2.0
WRAP.  NO : One line per depth step
~WELL INFORMATION
#MNEMONIC   .UNIT                                           VALUE :DESCRIPTION
#------------------------------------------------------------------------------
STRT        .FT                                         6750.0000 :START DEPTH
STOP        .FT                                         6850.0000 :STOP DEPTH
STEP        .FT                                            0.5000 :STEP
NULL        .                                           -999.2500 :NULL VALUE
COMP        .                                        Asquith AAPG :COMPANY
WELL        .                                          Case Study :WELL
FLD         .                                             UNKNOWN :FIELD
LOC         .                                             UNKNOWN :LOCATION
CNTY        .                                             UNKNOWN :COUNTY
STAT        .                                             UNKNOWN :STATE
CTRY        .                                             UNKNOWN :COUNTRY
SRVC        .                                             UNKNOWN :SERVICE COMPANY
DATE        .                                             UNKNOWN :LOG DATE
UWI         .                                        Case Study 7 :UNIQUE WELL ID
XCOORD      .                                            0.000000 :SURFACE X
YCOORD      .                                            0.000000 :SURFACE Y
LAT         .                                            3.442337 :LATITUDE
LON         .                                         -105.983204 :LONGITUDE
ELEV        .FT                                       -98765.0000 :SURFACE ELEV
ELEV_TYPE   .                                                  NA :ELEV TYPE
~CURVE INFORMATION
#MNEMONIC.UNIT        API CODE       : CURVE DESCRIPTION
#------------------------------------------------------------------------------
DEPTH    .FT                         : Measured Depth
GR       .API         UNKNOWN        : GR:CDL/DSN/GR:r1:MAIN:v1 
GR       .API         UNKNOWN        : GR:DLL/GR:r1:MAIN:v1 
LLD      .ohm.m       UNKNOWN        : LLD:DLL/GR:r1:MAIN:v1 
LLS      .ohm.m       UNKNOWN        : LLS:DLL/GR:r1:MAIN:v1 
MSFL     .ohm.m       UNKNOWN        : MSFL:DLL/GR:r1:MAIN:v1 
Pe       .b/elec      UNKNOWN        : Pe:CDL/DSN/GR:r1:MAIN:v1 
PHID     .v/v_decimal UNKNOWN        : PHID:CDL/DSN/GR:r1:MAIN:v1 
PHIN     .v/v_decimal UNKNOWN        : PHIN:CDL/DSN/GR:r1:MAIN:v1 
~A     DEPTH           GR           GR          LLD          LLS         MSFL           Pe         PHID         PHIN
# ...
   6784.5000      33.7405      33.7405     358.5330     319.3235     387.1955       4.4315       0.0215       0.0158
   6785.0000      31.2310      31.2310     357.5790     317.5020     217.0950       4.3890       0.0294       0.0189
   6785.5000      32.8570      32.8570     344.9240     297.7230     239.5315       4.3180       0.0370       0.0286
   6786.0000      34.4830      34.4830     332.2690     277.9440     261.9680       4.2470       0.0447       0.0383
   6786.5000      36.4745      36.4745     310.6005     248.0950     233.7000       4.0915       0.0512       0.0423
   6787.0000      38.4660      38.4660     288.9320     218.2460     205.4320       3.9360       0.0578       0.0462
   6787.5000      41.0725      41.0725     274.1425     207.8160     134.7450       3.8640       0.0504       0.0446
   6788.0000      43.6790      43.6790     259.3530     197.3860      64.0580       3.7920       0.0431       0.0430
   6788.5000      44.3630      44.3630     252.9535     195.1020     103.3995       3.9855       0.0179       0.0383
   6789.0000      45.0470      45.0470     246.5540     192.8180     142.7410       4.1790      -0.0072       0.0337
   6789.5000      44.4025      44.4025     240.9340     190.2305     119.4490       4.4495      -0.0043       0.0281
   6790.0000      43.7580      43.7580     235.3140     187.6430      96.1570       4.7200      -0.0014       0.0226
   6790.5000      43.2935      43.2935     225.7610     179.7210     103.5080       4.8090       0.0182       0.0201
   6791.0000      42.8290      42.8290     216.2080     171.7990     110.8590       4.8980       0.0379       0.0175
   6791.5000      41.4685      41.4685     205.2585     158.9100      98.8305       4.8300       0.0440       0.0166
   6792.0000      40.1080      40.1080     194.3090     146.0210      86.8020       4.7620       0.0501       0.0156
   6792.5000      37.8890      37.8890     183.9370     136.4705      71.3275       4.7370       0.0525       0.0159
   6793.0000      35.6700      35.6700     173.5650     126.9200      55.8530       4.7120       0.0549       0.0161
   6793.5000      34.7720      34.7720     170.9010     122.1010      56.7720       4.7675       0.0577       0.0168
   6794.0000      33.8740      33.8740     168.2370     117.2820      57.6910       4.8230       0.0605       0.0175
   6794.5000      33.9875      33.9875     164.6375     112.9970      44.1805       4.9440       0.0631       0.0182
   6795.0000      34.1010      34.1010     161.0380     108.7120      30.6700       5.0650       0.0656       0.0189
   6795.5000      33.5340      33.5340     156.0160     104.7170      31.8975       5.0090       0.0652       0.0192
   6796.0000      32.9670      32.9670     150.9940     100.7220      33.1250       4.9530       0.0648       0.0195
   6796.5000      32.8810      32.8810     147.6165      97.9040      38.1630       4.8255       0.0653       0.0201
   6797.0000      32.7950      32.7950     144.2390      95.0860      43.2010       4.6980       0.0658       0.0207
   6797.5000      33.3090      33.3090     148.8520      94.8955      45.9040       4.6545       0.0688       0.0209
   6798.0000      33.8230      33.8230     153.4650      94.7050      48.6070       4.6110       0.0718       0.0212
   6798.5000      34.9605      34.9605     174.0400      97.3965      41.3945       4.6205       0.0698       0.0207
   6799.0000      36.0980      36.0980     194.6150     100.0880      34.1820       4.6300       0.0679       0.0203
   6799.5000      38.2260      38.2260     226.4440     118.4625      40.6710       4.7290       0.0667       0.0187
   6800.0000      40.3540      40.3540     258.2730     136.8370      47.1600       4.8280       0.0655       0.0170
   6800.5000      44.5435      44.5435     271.8845     151.4225     127.2130       4.8495       0.0573       0.0154
   6801.0000      48.7330      48.7330     285.4960     166.0080     207.2660       4.8710       0.0492       0.0138
   6801.5000      52.5195      52.5195     254.9845     147.4250     146.3275       4.8380       0.0385       0.0142
   6802.0000      56.3060      56.3060     224.4730     128.8420      85.3890       4.8050       0.0277       0.0146
   6802.5000      53.7390      53.7390     194.4140     111.9370      70.0395       4.8055       0.0242       0.0162
   6803.0000      51.1720      51.1720     164.3550      95.0320      54.6900       4.8060       0.0206       0.0179
   6803.5000      46.6180      46.6180     143.7140      88.7940      50.0700       4.8420       0.0252       0.0193
   6804.0000      42.0640      42.0640     123.0730      82.5560      45.4500       4.8780       0.0297       0.0206
   6804.5000      38.2695      38.2695     122.0250      81.3555      49.7085       4.9825       0.0307       0.0214
   6805.0000      34.4750      34.4750     120.9770      80.1550      53.9670       5.0870       0.0317       0.0221
   6805.5000      32.4300      32.4300     122.4410      81.7480      45.8890       5.1355       0.0293       0.0219
   6806.0000      30.3850      30.3850     123.9050      83.3410      37.8110       5.1840       0.0268       0.0217
   6806.5000      28.4740      28.4740     130.2400      85.3350      51.6060       5.0990       0.0244       0.0215
   6807.0000      26.5630      26.5630     136.5750      87.3290      65.4010       5.0140       0.0221       0.0214
   6807.5000      25.7840      25.7840     134.4120      86.1975      58.3535       4.9705       0.0229       0.0207
   6808.0000      25.0050      25.0050     132.2490      85.0660      51.3060       4.9270       0.0236       0.0199
   6808.5000      25.6625      25.6625     125.6245      81.3090      48.0090       4.9275       0.0243       0.0189
   6809.0000      26.3200      26.3200     119.0000      77.5520      44.7120       4.9280       0.0250       0.0178
   6809.5000      25.6065      25.6065     117.0035      74.3715      44.5630       5.1420       0.0274       0.0173
   6810.0000      24.8930      24.8930     115.0070      71.1910      44.4140       5.3560       0.0299       0.0169
   6810.5000      22.4535      22.4535     117.6700      71.5515      44.0790       5.3865       0.0345       0.0169
   6811.0000      20.0140      20.0140     120.3330      71.9120      43.7440       5.4170       0.0391       0.0169
   6811.5000      18.4535      18.4535     118.3590      76.0000      62.9440       5.2665       0.0346       0.0207
   6812.0000      16.8930      16.8930     116.3850      80.0880      82.1440       5.1160       0.0300       0.0246
   6812.5000      18.3005      18.3005      96.6525      73.8905      85.2880       5.0505       0.0279       0.0328
   6813.0000      19.7080      19.7080      76.9200      67.6930      88.4320       4.9850       0.0257       0.0409
   6813.5000      23.9980      23.9980      38.7280      38.0326      45.5272       4.6370       0.0268       0.0609
   6814.0000      28.2880      28.2880       0.5360       8.3723       2.6224       4.2890       0.0280       0.0808
   6814.5000      44.1865      44.1865       3.4680       8.7552       1.4258       3.6600       0.0313       0.1165
   6815.0000      60.0850      60.0850       6.4000       9.1381       0.2291       3.0310       0.0346       0.1521
   6815.5000      77.4525      77.4525      11.2750      10.7996       3.0761       2.8055       0.0788       0.2058
   6816.0000      94.8200      94.8200      16.1500      12.4610       5.9230       2.5800       0.1229       0.2596
   6816.5000      99.9985      99.9985      16.4640      12.7380       8.3805       2.6410       0.1291       0.2696
   6817.0000     105.1770     105.1770      16.7780      13.0150      10.8380       2.7020       0.1353       0.2796
   6817.5000     109.6435     109.6435      16.1010      12.9470       8.3130       2.7910       0.1477       0.2774
   6818.0000     114.1100     114.1100      15.4240      12.8790       5.7880       2.8800       0.1600       0.2752
   6818.5000     116.6230     116.6230      14.4570      12.5870       6.2980       2.8400       0.1925       0.2734
