#------------------------------------------------------------------------------
#
#   Created by  : [OpenWorks] Log Export Utility (LEXP)
#   Created on  : 2003-07-22 09:27:56
#   Project     : AAPG_DAN
#   User        : DAK
#   Interpreter : DAK1
#
#------------------------------------------------------------------------------
~VERSION INFORMATION
VERS. 2.0 : CWLS Log ASCII Standard - version 2.0
WRAP.  NO : One line per depth step
~WELL INFORMATION
#MNEMONIC   .UNIT                                           VALUE :DESCRIPTION
#------------------------------------------------------------------------------
STRT        .FT                                        16250.0000 :START DEPTH
STOP        .FT                                        16480.0000 :STOP DEPTH
STEP        .FT                                            0.5000 :STEP
NULL        .                                           -999.2500 :NULL VALUE
COMP        .                                        Asquith AAPG :COMPANY
WELL        .                                          Case Study :WELL
FLD         .                                             UNKNOWN :FIELD
LOC         .                                             UNKNOWN :LOCATION
CNTY        .                                             UNKNOWN :COUNTY
STAT        .                                             UNKNOWN :STATE
CTRY        .                                             UNKNOWN :COUNTRY
SRVC        .                                             UNKNOWN :SERVICE COMPANY
DATE        .                                             UNKNOWN :LOG DATE
UWI         .                                        Case Study 6 :UNIQUE WELL ID
XCOORD      .                                            0.000000 :SURFACE X
YCOORD      .                                            0.000000 :SURFACE Y
LAT         .                                            3.442337 :LATITUDE
LON         .                                         -105.983204 :LONGITUDE
ELEV        .FT                                       -98765.0000 :SURFACE ELEV
ELEV_TYPE   .                                                  NA :ELEV TYPE
~CURVE INFORMATION
#MNEMONIC.UNIT        API CODE       : CURVE DESCRIPTION
#------------------------------------------------------------------------------
DEPTH    .FT                         : Measured Depth
CALI     .inches      UNKNOWN        : CALI:CDL/DSN/GR:r1:MAIN:v1 
DPHI     .v/v_decimal UNKNOWN        : DPHI:CDL/DSN/GR:r1:MAIN:v1 
DRHO     .g/cm3       UNKNOWN        : DRHO:CDL/DSN/GR:r1:MAIN:v1 
GR       .API         UNKNOWN        : GR:CDL/DSN/GR:r1:MAIN:v1 
ILD      .ohm.m       UNKNOWN        : ILD:DIL/SP:r1:MAIN:v1 
ILM      .ohm.m       UNKNOWN        : ILM:DIL/SP:r1:MAIN:v1 
NPHI     .v/v_decimal UNKNOWN        : NPHI:CDL/DSN/GR:r1:MAIN:v1 
SFL      .ohm.m       UNKNOWN        : SFL:DIL/SP:r1:MAIN:v1 
SP       .mV          UNKNOWN        : SP:DIL/SP:r1:MAIN:v1 
~A     DEPTH         CALI         DPHI         DRHO           GR          ILD          ILM         NPHI          SFL           SP
  16250.0000       8.9700       0.0485       0.0060      17.5530    1945.0610     530.1720       0.0020    1707.9750     -15.9520
  16250.5000       8.9700       0.0409       0.0090      18.1910    1945.0610     465.5490       0.0010    1676.5520     -15.9520
  16251.0000       8.9700       0.0187       0.0090      18.1910    1909.2760     397.7270       0.0000    1645.7070     -15.9520
  16251.5000       8.9700       0.0111       0.0090      20.7450    1909.2760     365.7020      -0.0010    1615.4301     -15.1590
  16252.0000       8.9700       0.0058       0.0210      22.6600    1874.1490     352.3690      -0.0010    1585.7090     -14.3650
  16252.5000       8.9700       0.0023       0.0260      23.9360    1839.6689     345.8860       0.0000    1556.5350     -13.5710
  16253.0000       8.9700       0.0023       0.0260      25.8510    1445.1100     333.2760       0.0010    1527.8990     -13.5710
  16253.5000       8.9560       0.0047       0.0220      26.1830    1201.7321     333.6000       0.0020    1485.4600     -14.7690
  16254.0000       8.9700       0.0012       0.0130      27.4620     713.5910     281.9830       0.0050     797.6940     -15.5770
  16254.5000       8.9700      -0.0035       0.0130      30.4560     581.7540     261.7970       0.0090     700.4620     -16.1510
  16255.0000       8.9700      -0.0123       0.0120      31.8890     456.9840     245.3340       0.0120     583.3600     -16.7790
  16255.5000       8.9700      -0.0228       0.0320      35.3420     432.2230     266.7040       0.0160     483.1640     -17.0220
  16256.0000       8.9700      -0.0304       0.0410      39.2730     408.8030     276.7960       0.0190     483.1640     -18.5410
  16256.5000       8.9700      -0.0292       0.0400      41.6320     386.6520     287.2690       0.0200     615.0820     -18.1800
  16257.0000       8.9700      -0.0275       0.0360      43.4170     386.6520     292.6530       0.0200     650.3190     -18.9910
  16257.5000       8.9700      -0.0216       0.0300      41.3600     408.8730     355.7940       0.0180     694.2580     -19.1360
  16258.0000       8.9700      -0.0175       0.0310      38.2240     501.4450     483.1640       0.0150     859.2000     -19.1350
  16258.5000       8.9720      -0.0158       0.0410      36.8260     550.2320     581.7540       0.0120    1114.2889     -19.1180
  16259.0000       8.9660      -0.0175       0.0470      35.1980     713.5910     754.4720       0.0110    1341.6610     -19.1330
  16259.5000       8.9950      -0.0117       0.0560      33.8950     783.0180     942.7950       0.0090    1707.9750     -19.1230
  16260.0000       9.0110      -0.0058       0.0480      31.8830     775.5520    1044.7590       0.0060    1586.2900     -19.1310
  16260.5000       9.0460       0.0006       0.0330      30.8820     740.5910    1093.7880       0.0060    1316.9780     -19.1240
  16261.0000       9.0570       0.0047       0.0350      30.9600     713.5910    1200.2061       0.0050     859.2000     -19.1180
  16261.5000       9.0550       0.0088       0.0330      33.1820     700.4620     827.8760       0.0050     783.0180     -19.1650
  16262.0000       9.0550       0.0111       0.0330      36.1010     687.5750     700.4620       0.0080     713.5910     -19.0320
  16262.5000       9.0550       0.0140       0.0320      36.4770     687.5750     581.7540       0.0130     700.4620     -19.7970
  16263.0000       9.0550       0.0146       0.0310      36.7790     713.5910     424.2710       0.0150     713.5910     -19.8890
  16263.5000       9.0570       0.0175       0.0300      36.1770     726.9660     424.2710       0.0170     942.7950     -19.9260
  16264.0000       9.0450       0.0246       0.0250      34.4950     754.4720     456.9840       0.0180    1135.1740     -20.2350
  16264.5000       9.0120       0.0310       0.0190      31.9040     768.6120     474.2750       0.0180    1341.6610     -21.6440
  16265.0000       8.9820       0.0269       0.0190      29.0220     783.0180     492.2200       0.0160    1316.9780     -21.4510
  16265.5000       8.9690       0.0228       0.0190      31.0210     783.0180     477.9480       0.0150    1222.7010     -21.6820
  16266.0000       8.9610       0.0193       0.0190      33.2900     768.6120     401.2820       0.0140    1200.2061     -22.2370
  16266.5000       8.9240       0.0175       0.0190      35.5680     638.8670     309.4180       0.0140    1135.1740     -21.3760
  16267.0000       8.9300       0.0140       0.0230      37.3480     540.1090     271.7030       0.0140    1114.2889     -21.5660
  16267.5000       8.9260       0.0082       0.0270      37.3300     440.3240     247.6120       0.0150    1073.6650     -21.5020
  16268.0000       8.9300       0.0041       0.0320      38.9200     393.8990     225.6570       0.0180     740.0520     -21.4610
  16268.5000       8.9240       0.0035       0.0340      40.0660     352.3690     213.4300       0.0200     520.4180     -21.6320
  16269.0000       8.9610       0.0064       0.0320      43.8120     358.9730     209.5040       0.0230     448.5760     -20.7620
  16269.5000       8.9700       0.0088       0.0300      46.2600     315.2180     205.6490       0.0250     345.8860     -21.4120
  16270.0000       8.9800       0.0246       0.0280      50.7430     315.2180     201.8660       0.0310     390.6790     -21.3890
  16270.5000       9.0160       0.0327       0.0280      52.6390     303.7260     205.6490       0.0360     638.3550     -22.1630
  16271.0000       9.0100       0.0310       0.0280      49.5540     298.1380     205.6490       0.0360     662.5080     -22.5860
  16271.5000       9.0230       0.0216       0.0290      47.0300     298.1380     221.5060       0.0330     626.6110     -24.2180
  16272.0000       9.0590       0.0146       0.0310      44.6760     303.7260     243.0570       0.0310     571.0510     -24.7140
  16272.5000       9.0530       0.0082       0.0330      44.7120     365.7020     281.9830       0.0290     520.4180     -24.5960
  16273.0000       9.0570       0.0035       0.0360      44.3000     483.1640     408.8030       0.0250     530.1720     -25.3150
  16273.5000       9.0540      -0.0006       0.0390      44.4340     589.1080    1028.3250       0.0230     600.1500     -25.5150
  16274.0000       9.0590      -0.0035       0.0420      43.6550     740.5910    1156.4500       0.0200     726.9660     -25.4450
  16274.5000       9.0310       0.0035       0.0480      41.9070     821.1010    1038.2080       0.0160     832.1430     -25.4500
  16275.0000       9.0110       0.0099       0.0460      39.5440     875.3040     891.7100       0.0150     908.4230     -25.9540
  16275.5000       9.0150       0.0199       0.0330      35.9520     908.4230     875.3040       0.0140     960.4650     -28.1140
  16276.0000       9.0030       0.0216       0.0310      35.6800     942.7950     875.3040       0.0140    1053.9120     -28.4830
  16276.5000       8.9670       0.0187       0.0290      36.3610     942.7950     875.3040       0.0130    1114.2889     -29.4850
  16277.0000       8.9710       0.0187       0.0280      36.7250     925.4490     875.3040       0.0130    1200.2061     -29.3640
  16277.5000       8.9700       0.0199       0.0270      35.9120     908.4230     875.3040       0.0120    1292.7480     -30.0580
  16278.0000       8.9710       0.0205       0.0350      34.0930     827.8760     827.8760       0.0120    1222.7010     -30.4080
  16278.5000       8.9600       0.0228       0.0380      32.7870     795.6100     661.3340       0.0110    1088.4480     -30.8320
  16279.0000       8.9330       0.0257       0.0310      32.0220     700.4620     440.3240       0.0100     908.4230     -31.6230
  16279.5000       8.9760       0.0287       0.0230      33.4830     662.5080     372.5560       0.0090     843.3930     -31.8770
  16280.0000       8.9670       0.0281       0.0220      37.4210     620.8460     309.4180       0.0100     797.8320     -32.0040
  16280.5000       8.9720       0.0234       0.0320      38.4600     592.6580     292.6530       0.0140     726.9660     -34.1390
