#------------------------------------------------------------------------------
#
#   Created by  : [OpenWorks] Log Export Utility (LEXP)
#   Created on  : 2003-07-22 09:27:21
#   Project     : AAPG_DAN
#   User        : DAK
#   Interpreter : DAK1
#
#------------------------------------------------------------------------------
~VERSION INFORMATION
VERS. 2.0 : CWLS Log ASCII Standard - version 2.0
WRAP.  NO : One line per depth step
~WELL INFORMATION
#MNEMONIC   .UNIT                                           VALUE :DESCRIPTION
#------------------------------------------------------------------------------
STRT        .FT                                         7390.0000 :START DEPTH
STOP        .FT                                         7510.0000 :STOP DEPTH
STEP        .FT                                            0.5000 :STEP
NULL        .                                           -999.2500 :NULL VALUE
COMP        .                                        Asquith AAPG :COMPANY
WELL        .                                          Case Study :WELL
FLD         .                                             UNKNOWN :FIELD
LOC         .                                             UNKNOWN :LOCATION
CNTY        .                                             UNKNOWN :COUNTY
STAT        .                                             UNKNOWN :STATE
CTRY        .                                             UNKNOWN :COUNTRY
SRVC        .                                             UNKNOWN :SERVICE COMPANY
DATE        .                                             UNKNOWN :LOG DATE
UWI         .                                        Case Study 4 :UNIQUE WELL ID
XCOORD      .                                            0.000000 :SURFACE X
YCOORD      .                                            0.000000 :SURFACE Y
LAT         .                                            3.442337 :LATITUDE
LON         .                                         -105.983204 :LONGITUDE
ELEV        .FT                                       -98765.0000 :SURFACE ELEV
ELEV_TYPE   .                                                  NA :ELEV TYPE
~CURVE INFORMATION
#MNEMONIC.UNIT        API CODE       : CURVE DESCRIPTION
#------------------------------------------------------------------------------
DEPTH    .FT                         : Measured Depth
CILD     .S/m         UNKNOWN        : CILD:IES/GR:r1:MAIN:v1 
DT       .us/ft       UNKNOWN        : DT:BCS/GR:r1:MAIN:v1 
IL       .ohm.m       UNKNOWN        : IL:IES/GR:r1:MAIN:v1 
SN       .ohm.m       UNKNOWN        : SN:IES/GR:r1:MAIN:v1 
SP       .mV          UNKNOWN        : SP:IES/GR:r1:MAIN:v1 
~A     DEPTH         CILD           DT           IL           SN           SP
   7390.0000     364.5480      98.7460       2.2650       4.1110      -4.3330
   7390.5000     365.3850      98.9460       2.2650       4.0270      -4.3330
   7391.0000     365.3850      98.5450       2.2650       3.8590      -4.3330
   7391.5000     367.0570      96.2370       2.3490       3.7750      -3.6670
   7392.0000     369.5650      92.9260       2.5170       3.7750      -3.6670
   7392.5000     371.2370      93.4440       2.6110       3.7810      -3.6720
   7393.0000     373.7460      92.1240       2.5980       3.7930      -3.8610
   7393.5000     375.4180      93.6290       2.5980       3.9570      -4.5450
   7394.0000     375.4180      95.2340       2.6030       3.8580      -5.0600
   7394.5000     376.2540      95.2340       2.6150       3.7730      -5.0040
   7395.0000     378.7630      95.8360       2.3640       3.7760      -4.9680
   7395.5000     380.4350      98.8460       2.2670       3.6970      -5.0200
   7396.0000     381.2710      94.3310       2.2610       3.4840      -4.3140
   7396.5000     379.5990      98.7460       2.2640       3.6030      -3.6570
   7397.0000     374.5820      97.9430       2.2650       3.7810      -3.9100
   7397.5000     368.7290      97.7420       2.2650       3.7770      -4.5020
   7398.0000     368.7290      93.2270       2.2650       3.7610      -5.6970
   7398.5000     368.7290      91.9230       2.2640       3.9220      -5.9840
   7399.0000     367.0570      96.4380       2.2650       4.0200      -5.5930
   7399.5000     362.8760      91.0200       2.2710       4.1990      -5.6830
   7400.0000     358.6960      89.8160       2.2770       4.2800      -5.6590
   7400.5000     357.0230      92.2240       2.4400       4.2660      -5.4990
   7401.0000     355.3510      96.2370       2.5150       4.0980      -4.9490
   7401.5000     353.6790      97.0400       2.6070       4.1110      -4.9990
   7402.0000     349.4980      98.3440       2.6190       4.1180      -5.0460
   7402.5000     347.8260      96.7390       2.7800       4.1270      -4.5060
   7403.0000     344.4820      96.2370       2.7670       4.2840      -4.3750
   7403.5000     342.8090      95.7360       2.7670       4.2620      -4.2790
   7404.0000     340.3010      94.8330       2.7690       4.0980      -5.0350
   7404.5000     339.4650      95.0330       2.7690       4.1130      -4.9750
   7405.0000     337.7930      94.1300       2.7690       4.1090      -5.0390
   7405.5000     332.7760      93.1270       2.7680       4.1040      -4.3940
   7406.0000     329.4310      92.4250       2.7650       4.1930      -4.3490
   7406.5000     326.9230      92.9260       2.7740       4.3660      -4.3430
   7407.0000     323.5790      92.1890       2.8100       4.4420      -4.3740
   7407.5000     321.0700      93.4280       2.9470       4.6030      -3.8280
   7408.0000     317.7260      91.5220       2.9400       4.6050      -3.6870
   7408.5000     316.8900      90.5180       2.9380       4.5950      -3.6870
   7409.0000     320.2340      90.4180       2.9380       4.4200      -3.6590
   7409.5000     331.9400      92.5250       2.8410       4.2560      -3.8750
   7410.0000     341.9730      94.0300       2.4980       4.0160      -3.6870
   7410.5000     355.3510      99.3480       2.4130       3.9330      -3.7100
   7411.0000     365.3850      99.6490       2.2490       3.6810      -4.3830
   7411.5000     371.2370     101.9570       2.2630       3.5210      -4.3350
   7412.0000     373.7460     107.6760       2.3520       3.4350      -4.1150
   7412.5000     376.2540     109.1810       2.4370       3.4330      -3.6480
   7413.0000     374.5820     106.4720       2.4250       3.4350      -3.6680
   7413.5000     370.4010     101.6560       2.5820       3.5230      -3.6690
   7414.0000     355.3510      99.5480       2.5920       3.6840      -3.6690
   7414.5000     341.1370      86.5050       2.6870       3.9220      -3.6690
   7415.0000     326.9230      86.0030       2.7730       4.0930      -3.6460
   7415.5000     316.8900      85.3010       2.7600       4.1070      -3.6050
   7416.0000     307.6920      94.9330       2.9210       4.1130      -2.9550
   7416.5000     300.1670      97.1400       2.9310       4.1010      -3.0060
   7417.0000     294.3140     100.7530       2.9340       4.2640      -3.0080
   7417.5000     287.6250     100.8530       2.9340       4.2740      -2.9850
   7418.0000     283.4450      99.7490       3.0160       4.2740      -3.3430
   7418.5000     279.2640      94.0300       3.1020       4.2630      -3.6920
   7419.0000     276.7560      93.6290       3.1980       4.0960      -3.3330
   7419.5000     275.0840      95.6350       3.2950       4.2840      -2.9730
   7420.0000     276.7560      95.8860       3.4420       4.4400      -3.3200
   7420.5000     278.4280      95.6350       3.6160       4.6290      -3.6560
   7421.0000     280.1000      98.3950       3.6050       4.6250      -3.6620
   7421.5000     285.1170      99.0470       3.6160       4.4760      -3.6810
   7422.0000     293.4780      97.2910       3.4790       4.6050      -3.3650
   7422.5000     298.4950     100.2510       3.4540       4.4470      -3.0160
   7423.0000     305.1840      92.2740       3.2490       4.4450      -2.9970
   7423.5000     311.8730      91.6720       3.2920       4.4470      -3.0000
   7424.0000     315.2170      91.2710       3.1370       4.4780      -3.1770
   7424.5000     318.5620      92.7260       3.2880       4.6020      -3.5990
   7425.0000     320.2340      92.9260       3.2750       4.6240      -4.3800
   7425.5000     320.2340      94.0300       3.2640       4.4360      -4.3290
   7426.0000     321.9060      95.8860       3.2820       4.4550      -4.1780
   7426.5000     323.5790      95.5850       3.0920       4.4420      -3.5340
   7427.0000     323.5790      91.5220       3.1110       4.4020      -2.9630
   7427.5000     321.9060      88.8630       3.1110       4.2710      -2.9830
   7428.0000     321.9060      88.4620       3.0920       4.2900      -2.9920
   7428.5000     321.9060      94.1300       3.2830       4.4120      -3.0210
   7429.0000     320.2340     100.6520       3.2670       4.6270      -3.1640
   7429.5000     318.5620      99.6490       3.2700       4.6140      -3.7060
   7430.0000     318.5620      93.2270       3.2710       4.5330      -3.6810
   7430.5000     321.9060      92.5750       3.2750       4.2900      -3.6890
   7431.0000     321.9060      93.4780       3.2820       4.2440      -3.6400
   7431.5000     323.5790      95.1340       3.1450       4.1390      -4.3300
   7432.0000     323.5790      95.5850       3.1140       4.2870      -4.9590
   7432.5000     326.9230      92.8760       3.1090       4.2880      -4.4770
   7433.0000     328.5950      95.6350       2.9670       4.2660      -4.7520
   7433.5000     328.5950      96.1870       3.0690       4.4540      -3.0960
   7434.0000     330.2680      96.8900       3.0940       4.5030      -2.7800
   7434.5000     330.2680      95.7360       3.0750       4.6060      -2.4940
   7435.0000     331.9400      94.2310       2.8010       4.6140      -3.9030
   7435.5000     335.2840      92.5750       2.7690       4.6140      -4.4060
   7436.0000     336.9570      92.0230       2.7640       4.6120      -3.6280
   7436.5000     340.3010      93.0770       2.7730       4.6170      -3.7050
   7437.0000     343.6450      95.6350       2.8110       4.6460      -3.6250
   7437.5000     341.9730      98.1440       2.9440       4.9050      -4.3690
   7438.0000     331.9400     100.3510       2.9260       5.1280      -4.4970
   7438.5000     318.5620     101.1040       3.0490       5.4110      -4.9820
   7439.0000     286.1200     108.9800       3.2020       5.7340      -4.9980
   7439.5000     260.0330     106.9730       3.5930       6.4900      -4.9780
   7440.0000     223.2440     104.6660       4.2630       7.8340      -5.1660
   7440.5000     196.0700      95.5750       5.1120       9.1280      -6.1720
   7441.0000     167.8510      78.0520       5.9590      11.1560      -7.3000
