#------------------------------------------------------------------------------
#
#   Created by  : [OpenWorks] Log Export Utility (LEXP)
#   Created on  : 2003-07-22 09:26:58
#   Project     : AAPG_DAN
#   User        : DAK
#   Interpreter : DAK1
#
#------------------------------------------------------------------------------
~VERSION INFORMATION
VERS. 2.0 : CWLS Log ASCII Standard - version 2.0
WRAP.  NO : One line per depth step
~WELL INFORMATION
#MNEMONIC   .UNIT                                           VALUE :DESCRIPTION
#------------------------------------------------------------------------------
STRT        .FT                                         9290.0000 :START DEPTH
STOP        .FT                                         9410.0000 :STOP DEPTH
STEP        .FT                                            0.5000 :STEP
NULL        .                                           -999.2500 :NULL VALUE
COMP        .                                        Asquith AAPG :COMPANY
WELL        .                                          Case Study :WELL
FLD         .                                             UNKNOWN :FIELD
LOC         .                                             UNKNOWN :LOCATION
CNTY        .                                             UNKNOWN :COUNTY
STAT        .                                             UNKNOWN :STATE
CTRY        .                                             UNKNOWN :COUNTRY
SRVC        .                                             UNKNOWN :SERVICE COMPANY
DATE        .                                             UNKNOWN :LOG DATE
UWI         .                                        Case Study 2 :UNIQUE WELL ID
XCOORD      .                                            0.000000 :SURFACE X
YCOORD      .                                            0.000000 :SURFACE Y
LAT         .                                            3.442337 :LATITUDE
LON         .                                         -105.983204 :LONGITUDE
ELEV        .FT                                       -98765.0000 :SURFACE ELEV
ELEV_TYPE   .                                                  NA :ELEV TYPE
~CURVE INFORMATION
#MNEMONIC.UNIT        API CODE       : CURVE DESCRIPTION
#------------------------------------------------------------------------------
DEPTH    .FT                         : Measured Depth
CALI     .inches      UNKNOWN        : CALI:BCS/GR:r1:MAIN:v1 
CALI     .inches      UNKNOWN        : CALI:CDL/DSN/GR:r1:MAIN:v1 
CALI     .inches      UNKNOWN        : CALI:DLL/GR:r1:MAIN:v1 
DPHI     .v/v_decimal UNKNOWN        : DPHI:CDL/DSN/GR:r1:MAIN:v1 
DRHO     .g/cm3       UNKNOWN        : DRHO:CDL/DSN/GR:r1:MAIN:v1 
DT       .us/ft       UNKNOWN        : DT:BCS/GR:r1:MAIN:v1 
GR       .API         UNKNOWN        : GR:BCS/GR:r1:MAIN:v1 
GR       .API         UNKNOWN        : GR:CDL/DSN/GR:r1:MAIN:v1 
GR       .API         UNKNOWN        : GR:DLL/GR:r1:MAIN:v1 
LLD      .ohm.m       UNKNOWN        : LLD:DLL/GR:r1:MAIN:v1 
LLS      .ohm.m       UNKNOWN        : LLS:DLL/GR:r1:MAIN:v1 
MSFL     .ohm.m       UNKNOWN        : MSFL:DLL/GR:r1:MAIN:v1 
NPHI     .v/v_decimal UNKNOWN        : NPHI:CDL/DSN/GR:r1:MAIN:v1 
RHOB     .g/cm3       UNKNOWN        : RHOB:PETROWORKS:r1:MAIN:v1 
~A     DEPTH         CALI         CALI         CALI         DPHI         DRHO           DT           GR           GR           GR          LLD          LLS         MSFL         NPHI         RHOB
# ...
   9353.0000       9.2920       8.5270       9.3970       0.0447       0.1270      61.7250      39.6290      39.6050      44.6230       4.6620       2.3470       1.6030       0.2470       2.6380
   9353.5000       9.2600       8.4450       9.3283       0.0503       0.1230      60.9290      31.7960      29.0150      34.1990       4.7340       2.3830       1.5080       0.2470       2.6290
   9354.0000       9.2000       8.3900       9.2699       0.0559       0.0990      60.3980      28.9780      24.0630      28.4930       5.1870       2.5330       1.2750       0.2360       2.6200
   9354.5000       9.2690       8.3700       9.1918       0.0627       0.0450      59.1380      28.0050      23.2810      26.3140       5.9500       2.8620       1.2370       0.2170       2.6090
   9355.0000       9.2470       8.4210       9.1604       0.0609       0.0310      58.7060      26.9960      21.7690      26.1600       6.4220       3.3100       2.9060       0.2000       2.6120
   9355.5000       9.2600       8.4380       9.1574       0.0559       0.0200      58.1760      26.0540      20.8870      26.2530       7.8640       3.6530       3.3680       0.1990       2.6200
   9356.0000       9.2920       8.4720       9.2031       0.0466       0.0220      57.8110      25.1690      20.5620      25.5810       9.2600       3.9420       3.8820       0.1970       2.6350
   9356.5000       9.2910       8.5080       9.2589       0.0273       0.0350      57.0150      23.3130      20.7720      24.6120      11.3820       4.3860       3.6530       0.1970       2.6660
   9357.0000       9.3250       8.5410       9.3645       0.0174       0.0410      56.3180      21.5800      21.5250      24.8860      13.4370       4.9550       4.4540       0.1860       2.6820
   9357.5000       9.3270       8.5730       9.3949       0.0062       0.0450      55.2570      20.6850      22.3330      25.3250      17.4680       6.2290       5.5130       0.1680       2.7000
   9358.0000       9.3280       8.5740       9.3980      -0.0025       0.0420      53.8970      22.2650      24.2670      25.8940      26.1170       9.8420      12.5620       0.1430       2.7140
   9358.5000       9.3280       8.5780       9.3583      -0.0112       0.0420      51.8410      26.0110      26.2160      26.4800      34.8940      13.7650      26.1170       0.1020       2.7280
   9359.0000       9.3260       8.5460       9.3593      -0.0193       0.0440      50.7130      28.7360      27.9040      26.5440      45.9150      16.5290      28.1860       0.0830       2.7410
   9359.5000       9.3590       8.5100       9.3875      -0.0273       0.0410      50.0830      31.5900      30.1250      26.5620      60.4170      19.5480      30.4190       0.0750       2.7540
   9360.0000       9.3430       8.4760       9.4029      -0.0261       0.0430      50.8770      34.4970      36.0390      28.8470      64.2170      22.4230      30.4190       0.0730       2.7520
   9360.5000       9.3270       8.4490       9.4340      -0.0205       0.0400      52.3050      39.0890      41.6120      33.9280      64.2170      22.7680      21.7660       0.0850       2.7430
   9361.0000       9.3270       8.4430       9.4644      -0.0183       0.0390      52.9020      42.3200      47.2360      39.0960      55.5720      18.9630      13.3150       0.0910       2.7395
   9361.5000       9.3280       8.4410       9.4612      -0.0161       0.0370      53.1670      45.1910      49.0270      43.7000      42.9010      17.1720      10.7860       0.1330       2.7360
   9362.0000       9.3280       8.4380       9.4626      -0.0124       0.0350      52.8910      42.4890      43.7420      40.7640      38.5310      17.0410      18.6820       0.1340       2.7300
   9362.5000       9.3280       8.4780       9.4270      -0.0180       0.0350      52.8360      36.7900      34.4050      34.7000      46.0450      21.6150      19.8480       0.1090       2.7390
   9363.0000       9.3270       8.4820       9.3903      -0.0224       0.0370      51.3100      30.0490      27.1160      31.7290      65.2720      29.9590      20.1530       0.0970       2.7460
   9363.5000       9.3200       8.5100       9.3609      -0.0267       0.0390      50.2490      26.4630      25.0430      29.0000      79.5000      41.2670      19.5500       0.0830       2.7530
   9364.0000       9.2910       8.5080       9.3309      -0.0342       0.0360      49.9830      25.8010      25.2100      28.9150      76.5290      34.9590      14.5910       0.0670       2.7650
   9364.5000       9.2920       8.5110       9.3320      -0.0345       0.0360      50.6470      24.5270      25.8970      29.8640      47.7120      25.9380      11.8200       0.0630       2.7655
   9365.0000       9.3210       8.4710       9.2978      -0.0348       0.0390      51.5090      24.3270      28.8660      30.2080      36.9200      18.4680       9.1920       0.0630       2.7660
   9365.5000       9.3250       8.4670       9.2773      -0.0205       0.0470      52.0400      27.3700      32.0660      31.0720      21.5850      15.3170       7.4830       0.0670       2.7430
   9366.0000       9.3140       8.4390       9.2565      -0.0099       0.0510      52.6680      30.5710      35.6260      33.8730      20.6200      13.7650       6.6210       0.0980       2.7260
   9366.5000       9.2330       8.4400       9.2239      -0.0106       0.0520      53.1010      35.2680      38.1480      38.3040      20.1530      14.0840       7.4330       0.1190       2.7270
   9367.0000       9.2030       8.4410       9.2428      -0.0143       0.0440      52.5040      39.1990      38.7060      39.4010      21.5900      15.9220       8.8550       0.1230       2.7330
   9367.5000       9.1970       8.4410       9.2941      -0.0199       0.0380      51.9730      38.5210      34.6640      34.7910      25.9250      24.8810      11.8180       0.1070       2.7420
   9368.0000       9.1660       8.4410       9.3444      -0.0273       0.0370      51.1110      32.0560      31.3940      31.4420      41.9450      40.6420      33.0170       0.0990       2.7540
   9368.5000       9.1840       8.4410       9.4119      -0.0335       0.0410      48.5240      29.5560      29.9240      28.8380      73.6640      75.3530      45.9150       0.0150       2.7640
   9369.0000       9.2150       8.4400       9.4637      -0.0435       0.0510      48.1920      30.2920      28.0500      29.7750     181.1480     111.2410      57.7760       0.0100       2.7800
   9369.5000       9.2460       8.4420       9.4618      -0.0540       0.0560      47.9930      32.8180      28.6250      30.2900     257.4870     123.7150      71.4600       0.0090       2.7970
   9370.0000       9.1640       8.4490       9.4619      -0.0453       0.0530      48.2590      33.7770      29.1120      29.5550     279.7290     116.3940      92.5960       0.0110       2.7830
   9370.5000       9.1050       8.4760       9.4640      -0.0248       0.0480      48.9880      33.2440      29.5430      28.6080     249.4920      83.2210      92.5960       0.0150       2.7500
   9371.0000       9.0540       8.4770       9.4370      -0.0335       0.0620      49.4790      30.3760      29.4900      29.2540     175.6870      61.3460      72.1850       0.0250       2.7640
   9371.5000       9.0240       8.4840       9.4277      -0.0366       0.0690      50.8460      30.0400      29.5410      31.1040      55.9820      27.8800      16.7830       0.0470       2.7690
   9372.0000       9.0260       8.5080       9.4718      -0.0186       0.0720      52.5040      32.1960      30.9990      33.1690      17.0410       8.1960       4.6620       0.0830       2.7400
   9372.5000       9.0250       8.5430       9.4985      -0.0000       0.0610      53.2340      34.5960      33.6400      36.0850      12.1840       7.7110       3.9420       0.1490       2.7100
   9373.0000       9.0780       8.5660       9.4730       0.0031       0.0540      53.4330      34.4260      34.6370      35.8110      11.4630       7.7110       3.4890       0.1550       2.7050
   9373.5000       9.1460       8.5740       9.4398      -0.0019       0.0500      52.9020      31.3890      32.7800      32.3260      11.8180       7.7110       4.1270       0.1410       2.7130
