#------------------------------------------------------------------------------
#
#   Created by  : [OpenWorks] Log Export Utility (LEXP)
#   Created on  : 2003-07-22 09:26:58
#   Project     : AAPG_DAN
#   User        : DAK
#   Interpreter : DAK1
#
#------------------------------------------------------------------------------
~VERSION INFORMATION
VERS. 2.0 : CWLS Log ASCII Standard - version 2.0
WRAP.  NO : One line per depth step
~WELL INFORMATION
#MNEMONIC   .UNIT                                           VALUE :DESCRIPTION
#------------------------------------------------------------------------------
STRT        .FT                                         9290.0000 :START DEPTH
STOP        .FT                                         9410.0000 :STOP DEPTH
STEP        .FT                                            0.5000 :STEP
NULL        .                                           -999.2500 :NULL VALUE
COMP        .                                        Asquith AAPG :COMPANY
WELL        .                                          Case Study :WELL
FLD         .                                             UNKNOWN :FIELD
LOC         .                                             UNKNOWN :LOCATION
CNTY        .                                             UNKNOWN :COUNTY
STAT        .                                             UNKNOWN :STATE
CTRY        .                                             UNKNOWN :COUNTRY
SRVC        .                                             UNKNOWN :SERVICE COMPANY
DATE        .                                             UNKNOWN :LOG DATE
UWI         .                                        Case Study 2 :UNIQUE WELL ID
XCOORD      .                                            0.000000 :SURFACE X
YCOORD      .                                            0.000000 :SURFACE Y
LAT         .                                            3.442337 :LATITUDE
LON         .                                         -105.983204 :LONGITUDE
ELEV        .FT                                       -98765.0000 :SURFACE ELEV
ELEV_TYPE   .                                                  NA :ELEV TYPE
~CURVE INFORMATION
#MNEMONIC.UNIT        API CODE       : CURVE DESCRIPTION
#------------------------------------------------------------------------------
DEPTH    .FT                         : Measured Depth
CALI     .inches      UNKNOWN        : CALI:BCS/GR:r1:MAIN:v1 
CALI     .inches      UNKNOWN        : CALI:CDL/DSN/GR:r1:MAIN:v1 
CALI     .inches      UNKNOWN        : CALI:DLL/GR:r1:MAIN:v1 
DPHI     .v/v_decimal UNKNOWN        : DPHI:CDL/DSN/GR:r1:MAIN:v1 
DRHO     .g/cm3       UNKNOWN        : DRHO:CDL/DSN/GR:r1:MAIN:v1 
DT       .us/ft       UNKNOWN        : DT:BCS/GR:r1:MAIN:v1 
GR       .API         UNKNOWN        : GR:BCS/GR:r1:MAIN:v1 
GR       .API         UNKNOWN        : GR:CDL/DSN/GR:r1:MAIN:v1 
GR       .API         UNKNOWN        : GR:DLL/GR:r1:MAIN:v1 
LLD      .ohm.m       UNKNOWN        : LLD:DLL/GR:r1:MAIN:v1 
LLS      .ohm.m       UNKNOWN        : LLS:DLL/GR:r1:MAIN:v1 
MSFL     .ohm.m       UNKNOWN        : MSFL:DLL/GR:r1:MAIN:v1 
NPHI     .v/v_decimal UNKNOWN        : NPHI:CDL/DSN/GR:r1:MAIN:v1 
RHOB     .g/cm3       UNKNOWN        : RHOB:PETROWORKS:r1:MAIN:v1 
~A     DEPTH         CALI         CALI         CALI         DPHI         DRHO           DT           GR           GR           GR          LLD          LLS         MSFL         NPHI         RHOB
# ...
   9395.0000       9.4100       8.6450       9.4303       0.0118       0.0240      54.1630      41.2830      41.1720      39.5460      13.3580       6.2770      10.1470       0.0630       2.6910
   9395.5000       9.3610       8.6410       9.4030       0.0441       0.0300      53.8310      42.5380      41.8930      40.3270      15.0840       6.4710      10.7850       0.0800       2.6390
   9396.0000       9.3240       8.6350       9.3956       0.0404       0.0350      54.2290      41.6370      38.8390      38.2360      14.5200       6.0420       8.8550       0.0870       2.6450
   9396.5000       9.3580       8.6080       9.3938       0.0528       0.0380      55.4560      40.2830      34.8650      33.5530      11.9510       4.6640       5.6220       0.1040       2.6250
   9397.0000       9.3580       8.6080       9.3949       0.0565       0.0380      56.5170      39.2240      32.8970      30.0900       8.5210       3.7660       2.9300       0.1230       2.6190
   9397.5000       9.3930       8.6010       9.3962       0.0578       0.0370      57.5790      36.7800      32.2820      28.1950       7.3700       3.3850       2.4200       0.1350       2.6170
   9398.0000       9.3970       8.5740       9.3915       0.0540       0.0330      58.0430      34.5050      33.3920      29.9390       6.4220       3.1600       2.1590       0.1350       2.6230
   9398.5000       9.4300       8.5740       9.4271       0.0484       0.0300      57.8440      34.1120      34.7390      30.5830       6.2290       3.0190       2.0780       0.1250       2.6320
   9399.0000       9.4300       8.5670       9.4544       0.0447       0.0280      56.6170      36.4160      36.4870      31.2280       6.2290       2.9960       2.3970       0.1190       2.6380
   9399.5000       9.4300       8.5390       9.4246       0.0429       0.0260      55.0910      38.8800      38.7220      32.5310       6.6710       3.5940       3.1900       0.1060       2.6410
   9400.0000       9.4560       8.5440       9.4299       0.0422       0.0210      54.2290      38.9330      37.2990      33.5360       7.0370       4.3200       4.1900       0.0860       2.6420
   9400.5000       9.4250       8.5060       9.4286       0.0391       0.0150      53.6320      38.4890      35.5620      34.2560       7.9500       4.3860       3.8820       0.0820       2.6470
   9401.0000       9.4210       8.5100       9.4279       0.0261       0.0200      53.3670      35.8600      32.0310      34.3170       8.3220       4.3860       3.3850       0.0820       2.6680
   9401.5000       9.3680       8.5090       9.4280       0.0208       0.0250      53.4660      33.3350      30.2290      33.8660       8.5800       4.3860       3.2330       0.0860       2.6765
   9402.0000       9.3620       8.5080       9.4281       0.0155       0.0280      53.1340      30.6280      29.8780      32.0970       9.2600       4.4540       3.3330       0.0890       2.6850
   9402.5000       9.3610       8.5080       9.4281       0.0106       0.0370      52.7690      29.5510      30.5190      31.2540       9.8420       4.7340       4.2540       0.0830       2.6930
   9403.0000       9.3610       8.5080       9.4279       0.0025       0.0430      52.3380      29.9420      32.3570      32.0560      10.4780       5.5130       5.2670       0.0800       2.7060
   9403.5000       9.3610       8.5080       9.4281      -0.0025       0.0460      52.0070      32.5320      34.8770      34.8330      11.2900       6.2290       6.1350       0.0770       2.7140
   9404.0000       9.3610       8.5080       9.4297      -0.0050       0.0490      51.8410      34.8660      37.1180      37.2440      12.3710       6.9310       6.4220       0.0760       2.7180
   9404.5000       9.3600       8.5090       9.4281      -0.0056       0.0500      52.9680      37.1350      38.0750      39.1030      12.5620       7.3660       6.6210       0.0860       2.7190
   9405.0000       9.3620       8.5090       9.4386       0.0130       0.0440      53.4330      37.3560      34.1720      39.5640       9.1240       5.5240       5.4790       0.1020       2.6890
   9405.5000       9.3710       8.5070       9.4282       0.0224       0.0400      53.9640      34.8450      30.6550      36.1050       7.4800       4.5920       3.5970       0.1300       2.6740
   9406.0000       9.4050       8.5000       9.4274       0.0273       0.0400      54.7600      31.0140      27.6340      31.8340       5.1090       3.5430       2.2080       0.1510       2.6660
   9406.5000       9.4310       8.4730       9.4272       0.0276       0.0430      55.0910      27.7700      24.2510      24.0920       4.6620       3.0420       2.1420       0.1710       2.6655
   9407.0000       9.4280       8.4740       9.4266       0.0280       0.0450      55.1240      24.7520      21.5720      21.3640       4.4540       2.9060       2.1100       0.1850       2.6650
   9407.5000       9.4280       8.4750       9.4554       0.0174       0.0430      54.8260      21.4290      19.9260      19.3700       4.8800       3.1360       2.2080       0.1850       2.6820
   9408.0000       9.4290       8.4750       9.4354      -0.0000       0.0340      53.7980      19.2310      20.4120      19.6010       5.5130       4.0030       2.6520       0.1640       2.7100
   9408.5000       9.4260       8.4740       9.4297      -0.0075       0.0260      51.7740      17.8370      21.8700      20.6520      10.4610       8.1960       7.5310       0.0670       2.7220
   9409.0000       9.4640       8.4760       9.4277      -0.0149       0.0190      50.2490      17.0000      23.1660      21.2690      29.9590      13.9770      17.0410       0.0290       2.7340
   9409.5000       9.4610       8.4840       9.4279      -0.0199       0.0190      49.0220      19.6110      24.4360      21.3260      41.9010      19.5480      20.1530       0.0250       2.7420
   9410.0000       9.4610       8.3630       9.4281      -0.0267       0.0220      48.9880      21.1690      24.5740      21.4350      51.4800      19.8570      21.0960       0.0250       2.7530
