#------------------------------------------------------------------------------
#
#   Created by  : [OpenWorks] Log Export Utility (LEXP)
#   Created on  : 2003-07-22 09:27:56
#   Project     : AAPG_DAN
#   User        : DAK
#   Interpreter : DAK1
#
#------------------------------------------------------------------------------
~VERSION INFORMATION
VERS. 2.0 : CWLS Log ASCII Standard - version 2.0
WRAP.  NO : One line per depth step
~WELL INFORMATION
#MNEMONIC   .UNIT                                           VALUE :DESCRIPTION
#------------------------------------------------------------------------------
STRT        .FT                                        16250.0000 :START DEPTH
STOP        .FT                                        16480.0000 :STOP DEPTH
STEP        .FT                                            0.5000 :STEP
NULL        .                                           -999.2500 :NULL VALUE
COMP        .                                        Asquith AAPG :COMPANY
WELL        .                                          Case Study :WELL
FLD         .                                             UNKNOWN :FIELD
LOC         .                                             UNKNOWN :LOCATION
CNTY        .                                             UNKNOWN :COUNTY
STAT        .                                             UNKNOWN :STATE
CTRY        .                                             UNKNOWN :COUNTRY
SRVC        .                                             UNKNOWN :SERVICE COMPANY
DATE        .                                             UNKNOWN :LOG DATE
UWI         .                                        Case Study 6 :UNIQUE WELL ID
XCOORD      .                                            0.000000 :SURFACE X
YCOORD      .                                            0.000000 :SURFACE Y
LAT         .                                            3.442337 :LATITUDE
LON         .                                         -105.983204 :LONGITUDE
ELEV        .FT                                       -98765.0000 :SURFACE ELEV
ELEV_TYPE   .                                                  NA :ELEV TYPE
~CURVE INFORMATION
#MNEMONIC.UNIT        API CODE       : CURVE DESCRIPTION
#------------------------------------------------------------------------------
DEPTH    .FT                         : Measured Depth
CALI     .inches      UNKNOWN        : CALI:CDL/DSN/GR:r1:MAIN:v1 
DPHI     .v/v_decimal UNKNOWN        : DPHI:CDL/DSN/GR:r1:MAIN:v1 
DRHO     .g/cm3       UNKNOWN        : DRHO:CDL/DSN/GR:r1:MAIN:v1 
GR       .API         UNKNOWN        : GR:CDL/DSN/GR:r1:MAIN:v1 
ILD      .ohm.m       UNKNOWN        : ILD:DIL/SP:r1:MAIN:v1 
ILM      .ohm.m       UNKNOWN        : ILM:DIL/SP:r1:MAIN:v1 
NPHI     .v/v_decimal UNKNOWN        : NPHI:CDL/DSN/GR:r1:MAIN:v1 
SFL      .ohm.m       UNKNOWN        : SFL:DIL/SP:r1:MAIN:v1 
SP       .mV          UNKNOWN        : SP:DIL/SP:r1:MAIN:v1 
~A     DEPTH         CALI         DPHI         DRHO           GR          ILD          ILM         NPHI          SFL           SP
# ...
  16405.0000       8.8340      -0.0421      -0.0010      31.7560     217.4300     309.4180       0.0140     295.3950      -3.6410
  16405.5000       8.7940      -0.0327      -0.0050      33.3230     221.5060     315.2180       0.0140     292.6530      -3.2650
  16406.0000       8.8020      -0.0292      -0.0060      33.0650     223.5810     330.2100       0.0140     295.3950      -1.0260
  16406.5000       8.7980      -0.0304      -0.0060      32.0900     225.6570     333.2760       0.0140     333.2760      -0.3240
  16407.0000       8.8000      -0.0327      -0.0050      31.4640     227.7720     342.7040       0.0130     372.6200       0.0310
  16407.5000       8.7990      -0.0374      -0.0010      32.3060     229.8870     352.3690       0.0130     401.2820      -0.1920
  16408.0000       8.7990      -0.0351       0.0040      32.5520     229.8870     355.6710       0.0140     401.3510       0.4300
  16408.5000       8.7990      -0.0345       0.0090      33.5950     229.8870     358.9730       0.0140     372.5560      -0.1770
  16409.0000       8.7990      -0.0298       0.0130      32.9660     227.7720     358.9730       0.0140     342.7040      -0.0270
  16409.5000       8.7990      -0.0287       0.0150      33.2960     225.6570     358.9730       0.0180     333.2760       0.0450
  16410.0000       8.7990      -0.0310       0.0190      34.5080     221.5060     358.9730       0.0200     321.1260       0.9820
  16410.5000       8.7990      -0.0351       0.0190      36.4450     217.4300     333.2760       0.0230     315.2180       1.3630
  16411.0000       8.8000      -0.0363       0.0200      38.1370     213.4300     309.4180       0.0250     315.2180       1.6010
  16411.5000       8.7990      -0.0345       0.0160      39.9580     198.1520     287.2690       0.0260     309.4180       3.0170
  16412.0000       8.7980      -0.0357       0.0100      41.6590     190.9280     266.7040       0.0280     303.7260       3.2520
  16412.5000       8.8090      -0.0415       0.0110      43.5500     177.2600     232.1800       0.0310     298.1380       3.7690
  16413.0000       8.8460      -0.0468       0.0120      44.9190     170.7980     213.4300       0.0320     281.9830       4.0460
  16413.5000       8.8380      -0.0404       0.0170      47.2160     164.5710     200.6590       0.0370     252.4560       4.7600
  16414.0000       8.8530      -0.0333       0.0200      49.5350     155.6540     183.9670       0.0380     225.6570       4.6390
  16414.5000       8.8850      -0.0292       0.0210      52.7140     151.2580     175.4830       0.0420     204.6090       4.7280
  16415.0000       8.9040      -0.0281       0.0200      55.2010     144.5110     164.5710       0.0470     187.4150       4.6050
  16415.5000       8.9310      -0.0304       0.0140      57.4820     136.6810     158.5710       0.0510     170.7980       5.3120
  16416.0000       8.9250      -0.0298       0.0100      59.7980     129.2750     152.7900       0.0530     180.5820       5.4950
  16416.5000       8.9370      -0.0240       0.0060      61.2880     124.5620     147.2200       0.0590     177.2600       5.4760
  16417.0000       8.9740      -0.0170       0.0040      62.3980     122.2700     144.5110       0.0670     173.9990       5.4600
  16417.5000       8.9680      -0.0135       0.0020      64.3790     115.6450     141.8520       0.0700     170.7980       5.6310
  16418.0000       8.9710      -0.0146       0.0020      68.4840     113.5170     139.2430       0.0720     161.5430       6.3620
  16418.5000       8.9700      -0.0228       0.0020      72.4930     109.3790     139.2430       0.0730     156.8930       6.2160
  16419.0000       8.9700      -0.0275       0.0020      74.6160     107.3660     134.1660       0.0740     147.2200       6.2860
  16419.5000       8.9700      -0.0310       0.0030      75.5040     105.3910     129.2750       0.0750     144.5110       6.4010
  16420.0000       8.9700      -0.0281       0.0040      75.6610     103.4520     128.0860       0.0770     143.1820       7.3320
  16420.5000       8.9700      -0.0211       0.0050      76.6720     101.5490     124.5620       0.0770     141.8520       7.5400
  16421.0000       8.9700      -0.0175       0.0080      76.8690      99.6810     122.2700       0.0790     141.8520       7.8570
  16421.5000       8.9700      -0.0240       0.0150      79.1770      97.8470     117.8120       0.0820     144.5110       8.0080
  16422.0000       8.9700      -0.0269       0.0180      81.0740      96.0470     113.5170       0.0840     144.5110       8.7310
  16422.5000       8.9700      -0.0269       0.0180      83.3900      94.2790     111.4290       0.0870     141.8520       8.6170
  16423.0000       8.9700      -0.0240       0.0140      83.5380      94.2790     109.3790       0.0890     134.1660       8.6600
  16423.5000       8.9700      -0.0205       0.0110      82.0830      92.5450     107.3660       0.0900     129.2750       8.6520
  16424.0000       8.9700      -0.0228       0.0110      80.5590      91.6080     103.4520       0.0930     126.8960       8.6480
  16424.5000       8.9710      -0.0205       0.0150      79.4380      90.8420     103.4520       0.0940     126.8960       8.6520
  16425.0000       8.9610      -0.0211       0.0190      80.1780      89.1710     103.4520       0.0940     126.8960       8.6470
  16425.5000       8.9230      -0.0263       0.0280      82.6530      87.5300     103.4520       0.0920     131.6980       8.6630
  16426.0000       8.9290      -0.0345       0.0340      85.2660      87.5300     101.5490       0.0940     129.2750       8.6260
  16426.5000       8.9260      -0.0421       0.0380      86.6790      85.9200      99.6810       0.0970     126.8960       8.6640
  16427.0000       8.9280      -0.0468       0.0420      88.2360      84.3390      92.9050       0.1000     122.2700       7.9440
  16427.5000       8.9270      -0.0480       0.0450      89.7660      84.3390      87.5300       0.1100     120.0210       7.8640
  16428.0000       8.9270      -0.0450       0.0500      93.7590      82.7880      89.1710       0.1170     117.8120       7.8470
  16428.5000       8.9270      -0.0392       0.0510      99.1350      82.7880      89.1710       0.1170     115.6450       7.8580
  16429.0000       8.9270      -0.0322       0.0510     107.8560      81.2650      92.5450       0.1180     111.4290       7.8610
  16429.5000       8.9280      -0.0287       0.0460     116.7160      79.7690      96.0470       0.1180     109.3790       7.9160
  16430.0000       8.9260      -0.0275       0.0450     124.7110      79.7690      96.0470       0.1160     108.3730       8.7410
  16430.5000       8.9300      -0.0345       0.0440     125.4480      81.2650      96.0470       0.1160     113.5170       9.5970
  16431.0000       8.9240      -0.0368       0.0450     118.0390      81.2650      97.8470       0.1180     117.8120      10.0640
  16431.5000       8.9520      -0.0351       0.0400     110.5520      79.7690      99.6810       0.1200     120.0210       9.3530
  16432.0000       8.9240      -0.0292       0.0310      97.8450      76.8610      93.2940       0.1210     122.2700       9.4780
  16432.5000       8.9300      -0.0257       0.0270      93.1730      68.7580      85.9200       0.1230     122.2700       8.7540
  16433.0000       8.9260      -0.0222       0.0230      94.3050      62.6610      82.7880       0.1230     120.0210       7.9150
  16433.5000       8.9280      -0.0298       0.0270      96.9260      54.0540      73.1820       0.1250     104.2730       7.3000
  16434.0000       8.9270      -0.0374       0.0320     100.7850      47.4270      45.6980       0.1270      93.0750       6.6190
  16434.5000       8.9280      -0.0556       0.0380     103.5270      40.6730      35.5100       0.1280      73.9620       6.6890
  16435.0000       8.9270      -0.0567       0.0380     105.5770      37.9540      25.2250       0.1290      58.1750       6.2710
  16435.5000       8.9280      -0.0497       0.0330     105.0460      36.5700      20.9500       0.1290      32.1130       5.6560
