#------------------------------------------------------------------------------
#
#   Created by  : [OpenWorks] Log Export Utility (LEXP)
#   Created on  : 2003-07-22 09:27:56
#   Project     : AAPG_DAN
#   User        : DAK
#   Interpreter : DAK1
#
#------------------------------------------------------------------------------
~VERSION INFORMATION
VERS. 2.0 : CWLS Log ASCII Standard - version 2.0
WRAP.  NO : One line per depth step
~WELL INFORMATION
#MNEMONIC   .UNIT                                           VALUE :DESCRIPTION
#------------------------------------------------------------------------------
STRT        .FT                                        16250.0000 :START DEPTH
STOP        .FT                                        16480.0000 :STOP DEPTH
STEP        .FT                                            0.5000 :STEP
NULL        .                                           -999.2500 :NULL VALUE
COMP        .                                        Asquith AAPG :COMPANY
WELL        .                                          Case Study :WELL
FLD         .                                             UNKNOWN :FIELD
LOC         .                                             UNKNOWN :LOCATION
CNTY        .                                             UNKNOWN :COUNTY
STAT        .                                             UNKNOWN :STATE
CTRY        .                                             UNKNOWN :COUNTRY
SRVC        .                                             UNKNOWN :SERVICE COMPANY
DATE        .                                             UNKNOWN :LOG DATE
UWI         .                                        Case Study 6 :UNIQUE WELL ID
XCOORD      .                                            0.000000 :SURFACE X
YCOORD      .                                            0.000000 :SURFACE Y
LAT         .                                            3.442337 :LATITUDE
LON         .                                         -105.983204 :LONGITUDE
ELEV        .FT                                       -98765.0000 :SURFACE ELEV
ELEV_TYPE   .                                                  NA :ELEV TYPE
~CURVE INFORMATION
#MNEMONIC.UNIT        API CODE       : CURVE DESCRIPTION
#------------------------------------------------------------------------------
DEPTH    .FT                         : Measured Depth
CALI     .inches      UNKNOWN        : CALI:CDL/DSN/GR:r1:MAIN:v1 
DPHI     .v/v_decimal UNKNOWN        : DPHI:CDL/DSN/GR:r1:MAIN:v1 
DRHO     .g/cm3       UNKNOWN        : DRHO:CDL/DSN/GR:r1:MAIN:v1 
GR       .API         UNKNOWN        : GR:CDL/DSN/GR:r1:MAIN:v1 
ILD      .ohm.m       UNKNOWN        : ILD:DIL/SP:r1:MAIN:v1 
ILM      .ohm.m       UNKNOWN        : ILM:DIL/SP:r1:MAIN:v1 
NPHI     .v/v_decimal UNKNOWN        : NPHI:CDL/DSN/GR:r1:MAIN:v1 
SFL      .ohm.m       UNKNOWN        : SFL:DIL/SP:r1:MAIN:v1 
SP       .mV          UNKNOWN        : SP:DIL/SP:r1:MAIN:v1 
~A     DEPTH         CALI         DPHI         DRHO           GR          ILD          ILM         NPHI          SFL           SP
# ...
  16374.0000       8.2010       0.0596       0.0740      15.7460     180.5820     292.6530       0.0890     152.7900     -93.4760
  16374.5000       8.2020       0.0766       0.0660      15.1410     202.9060     289.7190       0.0920     152.7900     -93.0590
  16375.0000       8.1910       0.0977       0.0620      15.4080     221.5060     234.1950       0.0930     152.7900     -92.6130
  16375.5000       8.1540       0.1205       0.0770      16.4450     221.5060     190.9280       0.0950     152.7900     -91.5050
  16376.0000       8.1610       0.1199       0.0970      15.7380     221.5060     158.5710       0.1020     147.2200     -90.8710
  16376.5000       8.1480       0.1193       0.1070      15.9000     217.4300     136.6810       0.1060     136.6810     -89.8670
  16377.0000       8.1120       0.1029       0.1140      16.1860     209.5040     134.1660       0.1090     131.6980     -89.2410
  16377.5000       8.1170       0.0947       0.1220      16.3010     198.1520     134.1660       0.1120     131.6980     -88.1370
  16378.0000       8.1140       0.0807       0.1310      16.2130     183.9670     155.6540       0.1120     129.2750     -87.2290
  16378.5000       8.1160       0.0667       0.1260      15.7820     178.6720     166.3440       0.1110     131.6980     -86.0230
  16379.0000       8.1140       0.0725       0.1190      15.0230     161.5430     180.5820       0.1090     126.8960     -84.8510
  16379.5000       8.1190       0.0889       0.1070      15.3610     155.6540     170.7980       0.1100     124.5620     -84.0150
  16380.0000       8.0930       0.1000       0.0870      15.6940     147.2450     135.7040       0.1110     117.8330     -82.9080
  16380.5000       8.0730       0.1029       0.0750      16.2950     134.1660      99.6810       0.1120     111.4290     -82.2470
  16381.0000       8.0700       0.0982       0.0760      16.1660     117.8940      86.7250       0.1110     103.4700     -80.4480
  16381.5000       8.1050       0.0959       0.0830      16.8480     107.3660      71.3590       0.1110      99.6810     -78.7770
  16382.0000       8.1280       0.0918       0.0950      16.4850     103.4520      71.3590       0.1100     100.6150     -77.7760
  16382.5000       8.1570       0.0906       0.1010      17.0940     105.3910      76.8610       0.1080     103.4520     -74.8710
  16383.0000       8.2000       0.0830       0.1030      18.1470     109.3980      85.9350       0.1030     111.4480     -72.3640
  16383.5000       8.2470       0.0725       0.0970      17.7550     113.5170      90.8420       0.0900     122.2700     -69.8060
  16384.0000       8.2790       0.0567       0.0900      16.7000     118.9170      95.1630       0.0820     139.2670     -68.1520
  16384.5000       8.3780       0.0456       0.0850      15.1620     129.2750      99.6810       0.0760     152.7900     -64.8000
  16385.0000       8.4150       0.0322       0.0730      14.3520     151.4370     105.4090       0.0590     167.6840     -61.4160
  16385.5000       8.4520       0.0275       0.0520      15.8360     170.7980     117.8120       0.0530     177.2600     -58.3040
  16386.0000       8.5370       0.0187       0.0280      17.4100     180.6130     142.0720       0.0470     198.1860     -56.4950
  16386.5000       8.5790       0.0053       0.0200      18.9730     187.4150     161.5430       0.0400     201.8660     -53.6980
  16387.0000       8.6700      -0.0064       0.0040      18.7490     185.6910     172.3980       0.0270     196.3290     -50.1920
  16387.5000       8.6650      -0.0140       0.0030      17.1940     177.2600     180.5820       0.0240     180.5820     -47.6850
  16388.0000       8.7040      -0.0222       0.0060      16.5030     177.2600     185.6910       0.0240     161.5430     -45.3750
  16388.5000       8.7230      -0.0433       0.0130      17.1840     177.2600     194.5060       0.0240     167.6550     -42.4270
  16389.0000       8.7600      -0.0567       0.0180      18.2180     183.9990     225.8130       0.0240     190.9610     -40.7690
  16389.5000       8.7560      -0.0596       0.0190      19.1890     198.1520     281.9830       0.0240     221.5060     -38.9370
  16390.0000       8.7530      -0.0585       0.0170      20.0850     211.4670     421.8180       0.0240     271.8900     -37.7180
  16390.5000       8.7910      -0.0526       0.0120      21.5320     234.1950     492.2200       0.0230     365.7020     -36.3450
  16391.0000       8.7960      -0.0491       0.0060      21.9910     238.5850     448.5760       0.0230     379.5380     -34.8790
  16391.5000       8.8330      -0.0415       0.0010      20.6860     252.2530     365.7020       0.0200     393.8990     -32.6830
  16392.0000       8.8420      -0.0380      -0.0000      19.8580     261.7970     352.3690       0.0190     393.8990     -31.8770
  16392.5000       8.8430      -0.0386      -0.0030      19.1420     266.7040     358.9730       0.0170     393.8990     -29.5580
  16393.0000       8.8410      -0.0386       0.0020      19.2600     271.7030     365.7020       0.0160     379.5380     -27.8560
  16393.5000       8.8430      -0.0368       0.0040      21.9320     276.7960     365.7020       0.0150     352.3690     -26.2750
  16394.0000       8.8390      -0.0368       0.0010      23.9970     276.7960     352.3690       0.0150     333.2760     -24.7000
  16394.5000       8.8660      -0.0409       0.0010      25.3470     248.4940     319.5010       0.0160     313.6230     -23.0660
  16395.0000       8.8860      -0.0421       0.0010      25.8510     225.6570     309.4180       0.0170     292.6530     -22.1460
  16395.5000       8.8840      -0.0456       0.0050      26.4170     213.4300     292.6530       0.0170     271.7030     -20.6640
  16396.0000       8.8840      -0.0526       0.0040      27.8040     209.5040     281.9830       0.0180     266.7040     -19.3460
  16396.5000       8.8850      -0.0556       0.0030      29.3620     209.5040     276.7960       0.0180     271.7030     -18.7820
  16397.0000       8.8860      -0.0567       0.0020      30.8850     209.5040     276.7960       0.0180     287.2690     -18.2710
  16397.5000       8.8750      -0.0561       0.0020      30.9410     205.6490     287.2690       0.0180     309.4180     -17.9860
  16398.0000       8.8390      -0.0556       0.0070      31.0090     205.6490     303.7260       0.0180     321.1260     -14.9200
  16398.5000       8.8420      -0.0579       0.0150      31.8360     205.6490     303.7260       0.0180     312.7350     -14.6940
  16399.0000       8.8440      -0.0620       0.0210      32.2660     205.6490     303.7260       0.0170     281.9830     -13.6730
  16399.5000       8.8100      -0.0684       0.0260      32.0960     205.6490     298.1380       0.0160     271.7030     -13.6200
  16400.0000       8.7960      -0.0678       0.0320      31.2250     205.6490     295.3950       0.0150     274.2490     -12.8290
  16400.5000       8.8030      -0.0661       0.0310      30.5520     209.5040     287.2690       0.0140     287.2690     -11.3570
  16401.0000       8.7670      -0.0614       0.0260      30.2590     211.2340     281.9830       0.0150     298.1380     -10.3960
  16401.5000       8.7540      -0.0532       0.0180      29.0560     213.5300     281.9830       0.0170     315.2180      -9.5430
  16402.0000       8.7590      -0.0503       0.0140      29.5230     213.2850     271.7030       0.0170     333.3340      -9.0550
  16402.5000       8.7520      -0.0480       0.0120      28.4650     213.3990     266.7040       0.0170     345.8860      -8.2610
  16403.0000       8.7910      -0.0526       0.0100      29.0180     213.4780     266.7040       0.0160     358.9730      -7.1530
  16403.5000       8.8020      -0.0544       0.0110      30.2220     213.5250     271.7030       0.0150     345.8860      -6.4530
  16404.0000       8.8400      -0.0544       0.0090      30.4920     213.3220     284.6260       0.0140     318.1720      -5.7600
  16404.5000       8.8420      -0.0468       0.0040      31.1610     212.9690     298.1380       0.0140     309.4180      -5.6320
